{
"type": "FeatureCollection",
"name": "osm_saude",
"crs": { "type": "name", "properties": { "name": "urn:ogc:def:crs:OGC:1.3:CRS84" } },
"features": [
{ "type": "Feature", "properties": { "osm_id": 2358174964, "tipo": "node", "categoria": "saude", "nome": "Hospital e Maternidade Maringá", "amenity": "hospital", "leisure": "", "shop": "", "highway": "" }, "geometry": { "type": "Point", "coordinates": [ -51.947105, -23.4223193 ] } },
{ "type": "Feature", "properties": { "osm_id": 2358174967, "tipo": "node", "categoria": "saude", "nome": "Santa Casa de Maringá", "amenity": "hospital", "leisure": "", "shop": "", "highway": "" }, "geometry": { "type": "Point", "coordinates": [ -51.9187327, -23.4260952 ] } },
{ "type": "Feature", "properties": { "osm_id": 2424134030, "tipo": "node", "categoria": "saude", "nome": "ND Núcleo Diagnóstico", "amenity": "clinic", "leisure": "", "shop": "", "highway": "" }, "geometry": { "type": "Point", "coordinates": [ -51.9559014, -23.4397225 ] } },
{ "type": "Feature", "properties": { "osm_id": 2426208233, "tipo": "node", "categoria": "saude", "nome": "Urotec", "amenity": "clinic", "leisure": "", "shop": "", "highway": "" }, "geometry": { "type": "Point", "coordinates": [ -51.9558015, -23.4402075 ] } },
{ "type": "Feature", "properties": { "osm_id": 4600121432, "tipo": "node", "categoria": "saude", "nome": "Cardio Maringá", "amenity": "clinic", "leisure": "", "shop": "", "highway": "" }, "geometry": { "type": "Point", "coordinates": [ -51.94721, -23.4220473 ] } },
{ "type": "Feature", "properties": { "osm_id": 5076187704, "tipo": "node", "categoria": "saude", "nome": "Posto de saúde", "amenity": "clinic", "leisure": "", "shop": "", "highway": "" }, "geometry": { "type": "Point", "coordinates": [ -52.0648722, -23.3699626 ] } },
{ "type": "Feature", "properties": { "osm_id": 5103688064, "tipo": "node", "categoria": "saude", "nome": "Centro Integrado de Saúde Mental", "amenity": "clinic", "leisure": "", "shop": "", "highway": "" }, "geometry": { "type": "Point", "coordinates": [ -51.9615917, -23.4362668 ] } },
{ "type": "Feature", "properties": { "osm_id": 7575209486, "tipo": "node", "categoria": "saude", "nome": "Clínica Salutare", "amenity": "clinic", "leisure": "", "shop": "", "highway": "" }, "geometry": { "type": "Point", "coordinates": [ -51.9609799, -23.4333813 ] } },
{ "type": "Feature", "properties": { "osm_id": 12813120026, "tipo": "node", "categoria": "saude", "nome": "UBS Aclimação", "amenity": "clinic", "leisure": "", "shop": "", "highway": "" }, "geometry": { "type": "Point", "coordinates": [ -51.9168104, -23.4437184 ] } },
{ "type": "Feature", "properties": { "osm_id": 13112931457, "tipo": "node", "categoria": "saude", "nome": "Dra. Fernanda Rios", "amenity": "hospital", "leisure": "", "shop": "", "highway": "" }, "geometry": { "type": "Point", "coordinates": [ -51.9635435, -23.4390373 ] } },
{ "type": "Feature", "properties": { "osm_id": 13112931459, "tipo": "node", "categoria": "saude", "nome": "Dr. Paulo Curi Frascareli Filho", "amenity": "hospital", "leisure": "", "shop": "", "highway": "" }, "geometry": { "type": "Point", "coordinates": [ -51.9451945, -23.4228212 ] } },
{ "type": "Feature", "properties": { "osm_id": 13136294297, "tipo": "node", "categoria": "saude", "nome": "Dra. Rachel Berbet Ferreira", "amenity": "hospital", "leisure": "", "shop": "", "highway": "" }, "geometry": { "type": "Point", "coordinates": [ -51.9569624, -23.4351603 ] } },
{ "type": "Feature", "properties": { "osm_id": 146842157, "tipo": "way", "categoria": "saude", "nome": "Hospital Paraná", "amenity": "hospital", "leisure": "", "shop": "", "highway": "" }, "geometry": { "type": "Point", "coordinates": [ -51.9607608, -23.4365996 ] } },
{ "type": "Feature", "properties": { "osm_id": 146842158, "tipo": "way", "categoria": "saude", "nome": "Hospital do Câncer de Maringá", "amenity": "hospital", "leisure": "", "shop": "", "highway": "" }, "geometry": { "type": "Point", "coordinates": [ -51.9593737, -23.4365576 ] } },
{ "type": "Feature", "properties": { "osm_id": 187794553, "tipo": "way", "categoria": "saude", "nome": "Hospital Universitário Regional de Maringá", "amenity": "hospital", "leisure": "", "shop": "", "highway": "" }, "geometry": { "type": "Point", "coordinates": [ -51.9550711, -23.400067 ] } },
{ "type": "Feature", "properties": { "osm_id": 192467781, "tipo": "way", "categoria": "saude", "nome": "Unidade de Pronto Atendimento Zona Sul", "amenity": "hospital", "leisure": "", "shop": "", "highway": "" }, "geometry": { "type": "Point", "coordinates": [ -51.924364, -23.4522422 ] } },
{ "type": "Feature", "properties": { "osm_id": 205625800, "tipo": "way", "categoria": "saude", "nome": "UBS Cidade Alta", "amenity": "clinic", "leisure": "", "shop": "", "highway": "" }, "geometry": { "type": "Point", "coordinates": [ -51.9191632, -23.4611868 ] } },
{ "type": "Feature", "properties": { "osm_id": 227086446, "tipo": "way", "categoria": "saude", "nome": "Sem nome", "amenity": "clinic", "leisure": "", "shop": "", "highway": "" }, "geometry": { "type": "Point", "coordinates": [ -51.9566085, -23.4313262 ] } },
{ "type": "Feature", "properties": { "osm_id": 232401658, "tipo": "way", "categoria": "saude", "nome": "Hospital Psiquiátrico", "amenity": "hospital", "leisure": "", "shop": "", "highway": "" }, "geometry": { "type": "Point", "coordinates": [ -51.9593027, -23.4259484 ] } },
{ "type": "Feature", "properties": { "osm_id": 232401659, "tipo": "way", "categoria": "saude", "nome": "Hospital Santa Rita", "amenity": "hospital", "leisure": "", "shop": "", "highway": "" }, "geometry": { "type": "Point", "coordinates": [ -51.9526826, -23.4240678 ] } },
{ "type": "Feature", "properties": { "osm_id": 232459534, "tipo": "way", "categoria": "saude", "nome": "Unimed Maringá", "amenity": "clinic", "leisure": "", "shop": "", "highway": "" }, "geometry": { "type": "Point", "coordinates": [ -51.9255713, -23.4191169 ] } },
{ "type": "Feature", "properties": { "osm_id": 389365988, "tipo": "way", "categoria": "saude", "nome": "Associação Maringaense de Saúde Mental", "amenity": "clinic", "leisure": "", "shop": "", "highway": "" }, "geometry": { "type": "Point", "coordinates": [ -51.9569783, -23.4542514 ] } },
{ "type": "Feature", "properties": { "osm_id": 459909662, "tipo": "way", "categoria": "saude", "nome": "Unimed Centro", "amenity": "hospital", "leisure": "", "shop": "", "highway": "" }, "geometry": { "type": "Point", "coordinates": [ -51.9392247, -23.416386 ] } },
{ "type": "Feature", "properties": { "osm_id": 544996717, "tipo": "way", "categoria": "saude", "nome": "UBS Jardim Quebec", "amenity": "clinic", "leisure": "", "shop": "", "highway": "" }, "geometry": { "type": "Point", "coordinates": [ -51.9372417, -23.3891903 ] } },
{ "type": "Feature", "properties": { "osm_id": 545103004, "tipo": "way", "categoria": "saude", "nome": "UBS Mandacaru", "amenity": "clinic", "leisure": "", "shop": "", "highway": "" }, "geometry": { "type": "Point", "coordinates": [ -51.9559454, -23.4115894 ] } },
{ "type": "Feature", "properties": { "osm_id": 546242101, "tipo": "way", "categoria": "saude", "nome": "Sem nome", "amenity": "clinic", "leisure": "", "shop": "", "highway": "" }, "geometry": { "type": "Point", "coordinates": [ -51.9129581, -23.3972012 ] } },
{ "type": "Feature", "properties": { "osm_id": 546242102, "tipo": "way", "categoria": "saude", "nome": "Sem nome", "amenity": "clinic", "leisure": "", "shop": "", "highway": "" }, "geometry": { "type": "Point", "coordinates": [ -51.9133367, -23.3970767 ] } },
{ "type": "Feature", "properties": { "osm_id": 546242103, "tipo": "way", "categoria": "saude", "nome": "UPA - Zona Norte", "amenity": "clinic", "leisure": "", "shop": "", "highway": "" }, "geometry": { "type": "Point", "coordinates": [ -51.9130358, -23.3974429 ] } },
{ "type": "Feature", "properties": { "osm_id": 546914569, "tipo": "way", "categoria": "saude", "nome": "UBS Alvorada III", "amenity": "clinic", "leisure": "", "shop": "", "highway": "" }, "geometry": { "type": "Point", "coordinates": [ -51.9076274, -23.3876079 ] } },
{ "type": "Feature", "properties": { "osm_id": 807192618, "tipo": "way", "categoria": "saude", "nome": "UBS Jardim Iguaçu", "amenity": "clinic", "leisure": "", "shop": "", "highway": "" }, "geometry": { "type": "Point", "coordinates": [ -51.9596411, -23.4496206 ] } },
{ "type": "Feature", "properties": { "osm_id": 839516687, "tipo": "way", "categoria": "saude", "nome": "UBS Paris IV", "amenity": "clinic", "leisure": "", "shop": "", "highway": "" }, "geometry": { "type": "Point", "coordinates": [ -51.9665734, -23.3811007 ] } },
{ "type": "Feature", "properties": { "osm_id": 841962773, "tipo": "way", "categoria": "saude", "nome": "Hospital da Criança", "amenity": "hospital", "leisure": "", "shop": "", "highway": "" }, "geometry": { "type": "Point", "coordinates": [ -51.9061463, -23.4384895 ] } },
{ "type": "Feature", "properties": { "osm_id": 845151255, "tipo": "way", "categoria": "saude", "nome": "UBS Floriano", "amenity": "clinic", "leisure": "", "shop": "", "highway": "" }, "geometry": { "type": "Point", "coordinates": [ -52.0513708, -23.5247132 ] } },
{ "type": "Feature", "properties": { "osm_id": 874733653, "tipo": "way", "categoria": "saude", "nome": "Hospital Municipal de Maringá Thelma Villanova Kasprowicz", "amenity": "hospital", "leisure": "", "shop": "", "highway": "" }, "geometry": { "type": "Point", "coordinates": [ -51.9239936, -23.4531528 ] } },
{ "type": "Feature", "properties": { "osm_id": 1069857478, "tipo": "way", "categoria": "saude", "nome": "Hospital Memorial Uningá", "amenity": "hospital", "leisure": "", "shop": "", "highway": "" }, "geometry": { "type": "Point", "coordinates": [ -51.9437633, -23.4243 ] } },
{ "type": "Feature", "properties": { "osm_id": 1071922165, "tipo": "way", "categoria": "saude", "nome": "Maternidade Santa Rita", "amenity": "hospital", "leisure": "", "shop": "", "highway": "" }, "geometry": { "type": "Point", "coordinates": [ -51.9498835, -23.4264854 ] } },
{ "type": "Feature", "properties": { "osm_id": 1075995037, "tipo": "way", "categoria": "saude", "nome": "Hospital e Maternidade São Marcos", "amenity": "hospital", "leisure": "", "shop": "", "highway": "" }, "geometry": { "type": "Point", "coordinates": [ -51.944942, -23.4231597 ] } },
{ "type": "Feature", "properties": { "osm_id": 1111901677, "tipo": "way", "categoria": "saude", "nome": "UBS Zona Sul", "amenity": "clinic", "leisure": "", "shop": "", "highway": "" }, "geometry": { "type": "Point", "coordinates": [ -51.9290812, -23.4447111 ] } },
{ "type": "Feature", "properties": { "osm_id": 1383023885, "tipo": "way", "categoria": "saude", "nome": "UBS Requião/Guaiapó", "amenity": "clinic", "leisure": "", "shop": "", "highway": "" }, "geometry": { "type": "Point", "coordinates": [ -51.8733436, -23.4106739 ] } },
{ "type": "Feature", "properties": { "osm_id": 1383881625, "tipo": "way", "categoria": "saude", "nome": "UBS Parigot de Souza", "amenity": "clinic", "leisure": "", "shop": "", "highway": "" }, "geometry": { "type": "Point", "coordinates": [ -51.8867647, -23.4143337 ] } },
{ "type": "Feature", "properties": { "osm_id": 1383881745, "tipo": "way", "categoria": "saude", "nome": "UBS Jardim Pinheiros", "amenity": "clinic", "leisure": "", "shop": "", "highway": "" }, "geometry": { "type": "Point", "coordinates": [ -51.8969441, -23.4100308 ] } },
{ "type": "Feature", "properties": { "osm_id": 1383885281, "tipo": "way", "categoria": "saude", "nome": "UBS Piatã", "amenity": "clinic", "leisure": "", "shop": "", "highway": "" }, "geometry": { "type": "Point", "coordinates": [ -51.8884154, -23.4003847 ] } },
{ "type": "Feature", "properties": { "osm_id": 1383885501, "tipo": "way", "categoria": "saude", "nome": "UBS Paulino", "amenity": "clinic", "leisure": "", "shop": "", "highway": "" }, "geometry": { "type": "Point", "coordinates": [ -51.8992566, -23.3950903 ] } },
{ "type": "Feature", "properties": { "osm_id": 1383885757, "tipo": "way", "categoria": "saude", "nome": "UBS Jardim Alvorada I", "amenity": "clinic", "leisure": "", "shop": "", "highway": "" }, "geometry": { "type": "Point", "coordinates": [ -51.9219798, -23.401096 ] } },
{ "type": "Feature", "properties": { "osm_id": 1383886129, "tipo": "way", "categoria": "saude", "nome": "UBS Morangueira", "amenity": "clinic", "leisure": "", "shop": "", "highway": "" }, "geometry": { "type": "Point", "coordinates": [ -51.9157024, -23.408353 ] } },
{ "type": "Feature", "properties": { "osm_id": 1383886230, "tipo": "way", "categoria": "saude", "nome": "UBS Vila Esperança", "amenity": "clinic", "leisure": "", "shop": "", "highway": "" }, "geometry": { "type": "Point", "coordinates": [ -51.9377176, -23.4016777 ] } },
{ "type": "Feature", "properties": { "osm_id": 1383886378, "tipo": "way", "categoria": "saude", "nome": "UBS Grevíleas", "amenity": "clinic", "leisure": "", "shop": "", "highway": "" }, "geometry": { "type": "Point", "coordinates": [ -51.9300597, -23.386935 ] } },
{ "type": "Feature", "properties": { "osm_id": 1383887093, "tipo": "way", "categoria": "saude", "nome": "UBS Portal das Torres", "amenity": "clinic", "leisure": "", "shop": "", "highway": "" }, "geometry": { "type": "Point", "coordinates": [ -51.9303606, -23.3699948 ] } },
{ "type": "Feature", "properties": { "osm_id": 1383887379, "tipo": "way", "categoria": "saude", "nome": "UBS Ney Braga", "amenity": "clinic", "leisure": "", "shop": "", "highway": "" }, "geometry": { "type": "Point", "coordinates": [ -51.9679099, -23.3967305 ] } },
{ "type": "Feature", "properties": { "osm_id": 1383887540, "tipo": "way", "categoria": "saude", "nome": "UBS Vila Vardelina", "amenity": "clinic", "leisure": "", "shop": "", "highway": "" }, "geometry": { "type": "Point", "coordinates": [ -51.9605248, -23.4004752 ] } },
{ "type": "Feature", "properties": { "osm_id": 1383887961, "tipo": "way", "categoria": "saude", "nome": "UBS Jardim Olímpico", "amenity": "clinic", "leisure": "", "shop": "", "highway": "" }, "geometry": { "type": "Point", "coordinates": [ -51.9806155, -23.4056641 ] } },
{ "type": "Feature", "properties": { "osm_id": 1383888418, "tipo": "way", "categoria": "saude", "nome": "UBS Iguatemi", "amenity": "clinic", "leisure": "", "shop": "", "highway": "" }, "geometry": { "type": "Point", "coordinates": [ -52.0645194, -23.3707719 ] } },
{ "type": "Feature", "properties": { "osm_id": 1383888672, "tipo": "way", "categoria": "saude", "nome": "UBS Maringá Velho", "amenity": "clinic", "leisure": "", "shop": "", "highway": "" }, "geometry": { "type": "Point", "coordinates": [ -51.9647125, -23.4233065 ] } },
{ "type": "Feature", "properties": { "osm_id": 1383888723, "tipo": "way", "categoria": "saude", "nome": "UBS Zona 06", "amenity": "clinic", "leisure": "", "shop": "", "highway": "" }, "geometry": { "type": "Point", "coordinates": [ -51.9587936, -23.4193099 ] } },
{ "type": "Feature", "properties": { "osm_id": 1383888923, "tipo": "way", "categoria": "saude", "nome": "UBS Zona 07", "amenity": "clinic", "leisure": "", "shop": "", "highway": "" }, "geometry": { "type": "Point", "coordinates": [ -51.9306641, -23.4162117 ] } },
{ "type": "Feature", "properties": { "osm_id": 1383889135, "tipo": "way", "categoria": "saude", "nome": "UBS Vila Operária", "amenity": "clinic", "leisure": "", "shop": "", "highway": "" }, "geometry": { "type": "Point", "coordinates": [ -51.9212676, -23.4269396 ] } },
{ "type": "Feature", "properties": { "osm_id": 1383889485, "tipo": "way", "categoria": "saude", "nome": "UBS Jardim Internorte", "amenity": "clinic", "leisure": "", "shop": "", "highway": "" }, "geometry": { "type": "Point", "coordinates": [ -51.901725, -23.4269169 ] } },
{ "type": "Feature", "properties": { "osm_id": 1383889835, "tipo": "way", "categoria": "saude", "nome": "UBS São Silvestre", "amenity": "clinic", "leisure": "", "shop": "", "highway": "" }, "geometry": { "type": "Point", "coordinates": [ -51.9114997, -23.4547768 ] } },
{ "type": "Feature", "properties": { "osm_id": 1383889896, "tipo": "way", "categoria": "saude", "nome": "UBS Jardim Paraíso", "amenity": "clinic", "leisure": "", "shop": "", "highway": "" }, "geometry": { "type": "Point", "coordinates": [ -51.9141073, -23.4684624 ] } },
{ "type": "Feature", "properties": { "osm_id": 1383890648, "tipo": "way", "categoria": "saude", "nome": "UBS Jardim Universo", "amenity": "clinic", "leisure": "", "shop": "", "highway": "" }, "geometry": { "type": "Point", "coordinates": [ -51.9486517, -23.457264 ] } },
{ "type": "Feature", "properties": { "osm_id": 1383898663, "tipo": "way", "categoria": "saude", "nome": "UBS Jardim Industrial", "amenity": "clinic", "leisure": "", "shop": "", "highway": "" }, "geometry": { "type": "Point", "coordinates": [ -51.9772349, -23.4445731 ] } },
{ "type": "Feature", "properties": { "osm_id": 1506003797, "tipo": "way", "categoria": "saude", "nome": "Sem nome", "amenity": "hospital", "leisure": "", "shop": "", "highway": "" }, "geometry": { "type": "Point", "coordinates": [ -51.9600026, -23.4365076 ] } },
{ "type": "Feature", "properties": { "osm_id": 1506003798, "tipo": "way", "categoria": "saude", "nome": "Sem nome", "amenity": "hospital", "leisure": "", "shop": "", "highway": "" }, "geometry": { "type": "Point", "coordinates": [ -51.9613349, -23.437873 ] } },
{ "type": "Feature", "properties": { "osm_id": 1506003802, "tipo": "way", "categoria": "saude", "nome": "Sem nome", "amenity": "hospital", "leisure": "", "shop": "", "highway": "" }, "geometry": { "type": "Point", "coordinates": [ -51.9629571, -23.4390172 ] } },
{ "type": "Feature", "properties": { "osm_id": 1506003804, "tipo": "way", "categoria": "saude", "nome": "Sem nome", "amenity": "hospital", "leisure": "", "shop": "", "highway": "" }, "geometry": { "type": "Point", "coordinates": [ -51.96326, -23.4379327 ] } },
{ "type": "Feature", "properties": { "osm_id": 1506003808, "tipo": "way", "categoria": "saude", "nome": "Sem nome", "amenity": "hospital", "leisure": "", "shop": "", "highway": "" }, "geometry": { "type": "Point", "coordinates": [ -51.9595971, -23.4356232 ] } },
{ "type": "Feature", "properties": { "osm_id": 1506003809, "tipo": "way", "categoria": "saude", "nome": "Sem nome", "amenity": "hospital", "leisure": "", "shop": "", "highway": "" }, "geometry": { "type": "Point", "coordinates": [ -51.9616477, -23.4352452 ] } },
{ "type": "Feature", "properties": { "osm_id": 1506003817, "tipo": "way", "categoria": "saude", "nome": "Sem nome", "amenity": "hospital", "leisure": "", "shop": "", "highway": "" }, "geometry": { "type": "Point", "coordinates": [ -51.9615845, -23.436327 ] } },
{ "type": "Feature", "properties": { "osm_id": 1506003829, "tipo": "way", "categoria": "saude", "nome": "Sem nome", "amenity": "hospital", "leisure": "", "shop": "", "highway": "" }, "geometry": { "type": "Point", "coordinates": [ -51.9556716, -23.4407176 ] } },
{ "type": "Feature", "properties": { "osm_id": 1506003832, "tipo": "way", "categoria": "saude", "nome": "Sem nome", "amenity": "hospital", "leisure": "", "shop": "", "highway": "" }, "geometry": { "type": "Point", "coordinates": [ -51.9554869, -23.4400943 ] } },
{ "type": "Feature", "properties": { "osm_id": 1506003834, "tipo": "way", "categoria": "saude", "nome": "Sem nome", "amenity": "hospital", "leisure": "", "shop": "", "highway": "" }, "geometry": { "type": "Point", "coordinates": [ -51.9556866, -23.4397697 ] } },
{ "type": "Feature", "properties": { "osm_id": 1506003835, "tipo": "way", "categoria": "saude", "nome": "Sem nome", "amenity": "hospital", "leisure": "", "shop": "", "highway": "" }, "geometry": { "type": "Point", "coordinates": [ -51.9554897, -23.4392685 ] } },
{ "type": "Feature", "properties": { "osm_id": 1506003836, "tipo": "way", "categoria": "saude", "nome": "Sem nome", "amenity": "hospital", "leisure": "", "shop": "", "highway": "" }, "geometry": { "type": "Point", "coordinates": [ -51.9611244, -23.4389424 ] } },
{ "type": "Feature", "properties": { "osm_id": 1506003837, "tipo": "way", "categoria": "saude", "nome": "Sem nome", "amenity": "hospital", "leisure": "", "shop": "", "highway": "" }, "geometry": { "type": "Point", "coordinates": [ -51.9612245, -23.4385713 ] } },
{ "type": "Feature", "properties": { "osm_id": 1506003838, "tipo": "way", "categoria": "saude", "nome": "Sem nome", "amenity": "hospital", "leisure": "", "shop": "", "highway": "" }, "geometry": { "type": "Point", "coordinates": [ -51.9615639, -23.4387811 ] } },
{ "type": "Feature", "properties": { "osm_id": 1506003842, "tipo": "way", "categoria": "saude", "nome": "Sem nome", "amenity": "hospital", "leisure": "", "shop": "", "highway": "" }, "geometry": { "type": "Point", "coordinates": [ -51.962704, -23.4380001 ] } },
{ "type": "Feature", "properties": { "osm_id": 1506003843, "tipo": "way", "categoria": "saude", "nome": "Sem nome", "amenity": "hospital", "leisure": "", "shop": "", "highway": "" }, "geometry": { "type": "Point", "coordinates": [ -51.9624641, -23.4379665 ] } },
{ "type": "Feature", "properties": { "osm_id": 1506003844, "tipo": "way", "categoria": "saude", "nome": "Sem nome", "amenity": "hospital", "leisure": "", "shop": "", "highway": "" }, "geometry": { "type": "Point", "coordinates": [ -51.9626605, -23.4370033 ] } }
]
}
