{
"type": "FeatureCollection",
"name": "osm_todos",
"crs": { "type": "name", "properties": { "name": "urn:ogc:def:crs:OGC:1.3:CRS84" } },
"features": [
{ "type": "Feature", "properties": { "osm_id": 2358174964, "tipo": "node", "categoria": "saude", "nome": "Hospital e Maternidade Maringá", "amenity": "hospital", "leisure": "", "shop": "", "highway": "" }, "geometry": { "type": "Point", "coordinates": [ -51.947105, -23.4223193 ] } },
{ "type": "Feature", "properties": { "osm_id": 2358174967, "tipo": "node", "categoria": "saude", "nome": "Santa Casa de Maringá", "amenity": "hospital", "leisure": "", "shop": "", "highway": "" }, "geometry": { "type": "Point", "coordinates": [ -51.9187327, -23.4260952 ] } },
{ "type": "Feature", "properties": { "osm_id": 2424134030, "tipo": "node", "categoria": "saude", "nome": "ND Núcleo Diagnóstico", "amenity": "clinic", "leisure": "", "shop": "", "highway": "" }, "geometry": { "type": "Point", "coordinates": [ -51.9559014, -23.4397225 ] } },
{ "type": "Feature", "properties": { "osm_id": 2426208233, "tipo": "node", "categoria": "saude", "nome": "Urotec", "amenity": "clinic", "leisure": "", "shop": "", "highway": "" }, "geometry": { "type": "Point", "coordinates": [ -51.9558015, -23.4402075 ] } },
{ "type": "Feature", "properties": { "osm_id": 4600121432, "tipo": "node", "categoria": "saude", "nome": "Cardio Maringá", "amenity": "clinic", "leisure": "", "shop": "", "highway": "" }, "geometry": { "type": "Point", "coordinates": [ -51.94721, -23.4220473 ] } },
{ "type": "Feature", "properties": { "osm_id": 5076187704, "tipo": "node", "categoria": "saude", "nome": "Posto de saúde", "amenity": "clinic", "leisure": "", "shop": "", "highway": "" }, "geometry": { "type": "Point", "coordinates": [ -52.0648722, -23.3699626 ] } },
{ "type": "Feature", "properties": { "osm_id": 5103688064, "tipo": "node", "categoria": "saude", "nome": "Centro Integrado de Saúde Mental", "amenity": "clinic", "leisure": "", "shop": "", "highway": "" }, "geometry": { "type": "Point", "coordinates": [ -51.9615917, -23.4362668 ] } },
{ "type": "Feature", "properties": { "osm_id": 7575209486, "tipo": "node", "categoria": "saude", "nome": "Clínica Salutare", "amenity": "clinic", "leisure": "", "shop": "", "highway": "" }, "geometry": { "type": "Point", "coordinates": [ -51.9609799, -23.4333813 ] } },
{ "type": "Feature", "properties": { "osm_id": 12813120026, "tipo": "node", "categoria": "saude", "nome": "UBS Aclimação", "amenity": "clinic", "leisure": "", "shop": "", "highway": "" }, "geometry": { "type": "Point", "coordinates": [ -51.9168104, -23.4437184 ] } },
{ "type": "Feature", "properties": { "osm_id": 13112931457, "tipo": "node", "categoria": "saude", "nome": "Dra. Fernanda Rios", "amenity": "hospital", "leisure": "", "shop": "", "highway": "" }, "geometry": { "type": "Point", "coordinates": [ -51.9635435, -23.4390373 ] } },
{ "type": "Feature", "properties": { "osm_id": 13112931459, "tipo": "node", "categoria": "saude", "nome": "Dr. Paulo Curi Frascareli Filho", "amenity": "hospital", "leisure": "", "shop": "", "highway": "" }, "geometry": { "type": "Point", "coordinates": [ -51.9451945, -23.4228212 ] } },
{ "type": "Feature", "properties": { "osm_id": 13136294297, "tipo": "node", "categoria": "saude", "nome": "Dra. Rachel Berbet Ferreira", "amenity": "hospital", "leisure": "", "shop": "", "highway": "" }, "geometry": { "type": "Point", "coordinates": [ -51.9569624, -23.4351603 ] } },
{ "type": "Feature", "properties": { "osm_id": 146842157, "tipo": "way", "categoria": "saude", "nome": "Hospital Paraná", "amenity": "hospital", "leisure": "", "shop": "", "highway": "" }, "geometry": { "type": "Point", "coordinates": [ -51.9607608, -23.4365996 ] } },
{ "type": "Feature", "properties": { "osm_id": 146842158, "tipo": "way", "categoria": "saude", "nome": "Hospital do Câncer de Maringá", "amenity": "hospital", "leisure": "", "shop": "", "highway": "" }, "geometry": { "type": "Point", "coordinates": [ -51.9593737, -23.4365576 ] } },
{ "type": "Feature", "properties": { "osm_id": 187794553, "tipo": "way", "categoria": "saude", "nome": "Hospital Universitário Regional de Maringá", "amenity": "hospital", "leisure": "", "shop": "", "highway": "" }, "geometry": { "type": "Point", "coordinates": [ -51.9550711, -23.400067 ] } },
{ "type": "Feature", "properties": { "osm_id": 192467781, "tipo": "way", "categoria": "saude", "nome": "Unidade de Pronto Atendimento Zona Sul", "amenity": "hospital", "leisure": "", "shop": "", "highway": "" }, "geometry": { "type": "Point", "coordinates": [ -51.924364, -23.4522422 ] } },
{ "type": "Feature", "properties": { "osm_id": 205625800, "tipo": "way", "categoria": "saude", "nome": "UBS Cidade Alta", "amenity": "clinic", "leisure": "", "shop": "", "highway": "" }, "geometry": { "type": "Point", "coordinates": [ -51.9191632, -23.4611868 ] } },
{ "type": "Feature", "properties": { "osm_id": 227086446, "tipo": "way", "categoria": "saude", "nome": "Sem nome", "amenity": "clinic", "leisure": "", "shop": "", "highway": "" }, "geometry": { "type": "Point", "coordinates": [ -51.9566085, -23.4313262 ] } },
{ "type": "Feature", "properties": { "osm_id": 232401658, "tipo": "way", "categoria": "saude", "nome": "Hospital Psiquiátrico", "amenity": "hospital", "leisure": "", "shop": "", "highway": "" }, "geometry": { "type": "Point", "coordinates": [ -51.9593027, -23.4259484 ] } },
{ "type": "Feature", "properties": { "osm_id": 232401659, "tipo": "way", "categoria": "saude", "nome": "Hospital Santa Rita", "amenity": "hospital", "leisure": "", "shop": "", "highway": "" }, "geometry": { "type": "Point", "coordinates": [ -51.9526826, -23.4240678 ] } },
{ "type": "Feature", "properties": { "osm_id": 232459534, "tipo": "way", "categoria": "saude", "nome": "Unimed Maringá", "amenity": "clinic", "leisure": "", "shop": "", "highway": "" }, "geometry": { "type": "Point", "coordinates": [ -51.9255713, -23.4191169 ] } },
{ "type": "Feature", "properties": { "osm_id": 389365988, "tipo": "way", "categoria": "saude", "nome": "Associação Maringaense de Saúde Mental", "amenity": "clinic", "leisure": "", "shop": "", "highway": "" }, "geometry": { "type": "Point", "coordinates": [ -51.9569783, -23.4542514 ] } },
{ "type": "Feature", "properties": { "osm_id": 459909662, "tipo": "way", "categoria": "saude", "nome": "Unimed Centro", "amenity": "hospital", "leisure": "", "shop": "", "highway": "" }, "geometry": { "type": "Point", "coordinates": [ -51.9392247, -23.416386 ] } },
{ "type": "Feature", "properties": { "osm_id": 544996717, "tipo": "way", "categoria": "saude", "nome": "UBS Jardim Quebec", "amenity": "clinic", "leisure": "", "shop": "", "highway": "" }, "geometry": { "type": "Point", "coordinates": [ -51.9372417, -23.3891903 ] } },
{ "type": "Feature", "properties": { "osm_id": 545103004, "tipo": "way", "categoria": "saude", "nome": "UBS Mandacaru", "amenity": "clinic", "leisure": "", "shop": "", "highway": "" }, "geometry": { "type": "Point", "coordinates": [ -51.9559454, -23.4115894 ] } },
{ "type": "Feature", "properties": { "osm_id": 546242101, "tipo": "way", "categoria": "saude", "nome": "Sem nome", "amenity": "clinic", "leisure": "", "shop": "", "highway": "" }, "geometry": { "type": "Point", "coordinates": [ -51.9129581, -23.3972012 ] } },
{ "type": "Feature", "properties": { "osm_id": 546242102, "tipo": "way", "categoria": "saude", "nome": "Sem nome", "amenity": "clinic", "leisure": "", "shop": "", "highway": "" }, "geometry": { "type": "Point", "coordinates": [ -51.9133367, -23.3970767 ] } },
{ "type": "Feature", "properties": { "osm_id": 546242103, "tipo": "way", "categoria": "saude", "nome": "UPA - Zona Norte", "amenity": "clinic", "leisure": "", "shop": "", "highway": "" }, "geometry": { "type": "Point", "coordinates": [ -51.9130358, -23.3974429 ] } },
{ "type": "Feature", "properties": { "osm_id": 546914569, "tipo": "way", "categoria": "saude", "nome": "UBS Alvorada III", "amenity": "clinic", "leisure": "", "shop": "", "highway": "" }, "geometry": { "type": "Point", "coordinates": [ -51.9076274, -23.3876079 ] } },
{ "type": "Feature", "properties": { "osm_id": 807192618, "tipo": "way", "categoria": "saude", "nome": "UBS Jardim Iguaçu", "amenity": "clinic", "leisure": "", "shop": "", "highway": "" }, "geometry": { "type": "Point", "coordinates": [ -51.9596411, -23.4496206 ] } },
{ "type": "Feature", "properties": { "osm_id": 839516687, "tipo": "way", "categoria": "saude", "nome": "UBS Paris IV", "amenity": "clinic", "leisure": "", "shop": "", "highway": "" }, "geometry": { "type": "Point", "coordinates": [ -51.9665734, -23.3811007 ] } },
{ "type": "Feature", "properties": { "osm_id": 841962773, "tipo": "way", "categoria": "saude", "nome": "Hospital da Criança", "amenity": "hospital", "leisure": "", "shop": "", "highway": "" }, "geometry": { "type": "Point", "coordinates": [ -51.9061463, -23.4384895 ] } },
{ "type": "Feature", "properties": { "osm_id": 845151255, "tipo": "way", "categoria": "saude", "nome": "UBS Floriano", "amenity": "clinic", "leisure": "", "shop": "", "highway": "" }, "geometry": { "type": "Point", "coordinates": [ -52.0513708, -23.5247132 ] } },
{ "type": "Feature", "properties": { "osm_id": 874733653, "tipo": "way", "categoria": "saude", "nome": "Hospital Municipal de Maringá Thelma Villanova Kasprowicz", "amenity": "hospital", "leisure": "", "shop": "", "highway": "" }, "geometry": { "type": "Point", "coordinates": [ -51.9239936, -23.4531528 ] } },
{ "type": "Feature", "properties": { "osm_id": 1069857478, "tipo": "way", "categoria": "saude", "nome": "Hospital Memorial Uningá", "amenity": "hospital", "leisure": "", "shop": "", "highway": "" }, "geometry": { "type": "Point", "coordinates": [ -51.9437633, -23.4243 ] } },
{ "type": "Feature", "properties": { "osm_id": 1071922165, "tipo": "way", "categoria": "saude", "nome": "Maternidade Santa Rita", "amenity": "hospital", "leisure": "", "shop": "", "highway": "" }, "geometry": { "type": "Point", "coordinates": [ -51.9498835, -23.4264854 ] } },
{ "type": "Feature", "properties": { "osm_id": 1075995037, "tipo": "way", "categoria": "saude", "nome": "Hospital e Maternidade São Marcos", "amenity": "hospital", "leisure": "", "shop": "", "highway": "" }, "geometry": { "type": "Point", "coordinates": [ -51.944942, -23.4231597 ] } },
{ "type": "Feature", "properties": { "osm_id": 1111901677, "tipo": "way", "categoria": "saude", "nome": "UBS Zona Sul", "amenity": "clinic", "leisure": "", "shop": "", "highway": "" }, "geometry": { "type": "Point", "coordinates": [ -51.9290812, -23.4447111 ] } },
{ "type": "Feature", "properties": { "osm_id": 1383023885, "tipo": "way", "categoria": "saude", "nome": "UBS Requião/Guaiapó", "amenity": "clinic", "leisure": "", "shop": "", "highway": "" }, "geometry": { "type": "Point", "coordinates": [ -51.8733436, -23.4106739 ] } },
{ "type": "Feature", "properties": { "osm_id": 1383881625, "tipo": "way", "categoria": "saude", "nome": "UBS Parigot de Souza", "amenity": "clinic", "leisure": "", "shop": "", "highway": "" }, "geometry": { "type": "Point", "coordinates": [ -51.8867647, -23.4143337 ] } },
{ "type": "Feature", "properties": { "osm_id": 1383881745, "tipo": "way", "categoria": "saude", "nome": "UBS Jardim Pinheiros", "amenity": "clinic", "leisure": "", "shop": "", "highway": "" }, "geometry": { "type": "Point", "coordinates": [ -51.8969441, -23.4100308 ] } },
{ "type": "Feature", "properties": { "osm_id": 1383885281, "tipo": "way", "categoria": "saude", "nome": "UBS Piatã", "amenity": "clinic", "leisure": "", "shop": "", "highway": "" }, "geometry": { "type": "Point", "coordinates": [ -51.8884154, -23.4003847 ] } },
{ "type": "Feature", "properties": { "osm_id": 1383885501, "tipo": "way", "categoria": "saude", "nome": "UBS Paulino", "amenity": "clinic", "leisure": "", "shop": "", "highway": "" }, "geometry": { "type": "Point", "coordinates": [ -51.8992566, -23.3950903 ] } },
{ "type": "Feature", "properties": { "osm_id": 1383885757, "tipo": "way", "categoria": "saude", "nome": "UBS Jardim Alvorada I", "amenity": "clinic", "leisure": "", "shop": "", "highway": "" }, "geometry": { "type": "Point", "coordinates": [ -51.9219798, -23.401096 ] } },
{ "type": "Feature", "properties": { "osm_id": 1383886129, "tipo": "way", "categoria": "saude", "nome": "UBS Morangueira", "amenity": "clinic", "leisure": "", "shop": "", "highway": "" }, "geometry": { "type": "Point", "coordinates": [ -51.9157024, -23.408353 ] } },
{ "type": "Feature", "properties": { "osm_id": 1383886230, "tipo": "way", "categoria": "saude", "nome": "UBS Vila Esperança", "amenity": "clinic", "leisure": "", "shop": "", "highway": "" }, "geometry": { "type": "Point", "coordinates": [ -51.9377176, -23.4016777 ] } },
{ "type": "Feature", "properties": { "osm_id": 1383886378, "tipo": "way", "categoria": "saude", "nome": "UBS Grevíleas", "amenity": "clinic", "leisure": "", "shop": "", "highway": "" }, "geometry": { "type": "Point", "coordinates": [ -51.9300597, -23.386935 ] } },
{ "type": "Feature", "properties": { "osm_id": 1383887093, "tipo": "way", "categoria": "saude", "nome": "UBS Portal das Torres", "amenity": "clinic", "leisure": "", "shop": "", "highway": "" }, "geometry": { "type": "Point", "coordinates": [ -51.9303606, -23.3699948 ] } },
{ "type": "Feature", "properties": { "osm_id": 1383887379, "tipo": "way", "categoria": "saude", "nome": "UBS Ney Braga", "amenity": "clinic", "leisure": "", "shop": "", "highway": "" }, "geometry": { "type": "Point", "coordinates": [ -51.9679099, -23.3967305 ] } },
{ "type": "Feature", "properties": { "osm_id": 1383887540, "tipo": "way", "categoria": "saude", "nome": "UBS Vila Vardelina", "amenity": "clinic", "leisure": "", "shop": "", "highway": "" }, "geometry": { "type": "Point", "coordinates": [ -51.9605248, -23.4004752 ] } },
{ "type": "Feature", "properties": { "osm_id": 1383887961, "tipo": "way", "categoria": "saude", "nome": "UBS Jardim Olímpico", "amenity": "clinic", "leisure": "", "shop": "", "highway": "" }, "geometry": { "type": "Point", "coordinates": [ -51.9806155, -23.4056641 ] } },
{ "type": "Feature", "properties": { "osm_id": 1383888418, "tipo": "way", "categoria": "saude", "nome": "UBS Iguatemi", "amenity": "clinic", "leisure": "", "shop": "", "highway": "" }, "geometry": { "type": "Point", "coordinates": [ -52.0645194, -23.3707719 ] } },
{ "type": "Feature", "properties": { "osm_id": 1383888672, "tipo": "way", "categoria": "saude", "nome": "UBS Maringá Velho", "amenity": "clinic", "leisure": "", "shop": "", "highway": "" }, "geometry": { "type": "Point", "coordinates": [ -51.9647125, -23.4233065 ] } },
{ "type": "Feature", "properties": { "osm_id": 1383888723, "tipo": "way", "categoria": "saude", "nome": "UBS Zona 06", "amenity": "clinic", "leisure": "", "shop": "", "highway": "" }, "geometry": { "type": "Point", "coordinates": [ -51.9587936, -23.4193099 ] } },
{ "type": "Feature", "properties": { "osm_id": 1383888923, "tipo": "way", "categoria": "saude", "nome": "UBS Zona 07", "amenity": "clinic", "leisure": "", "shop": "", "highway": "" }, "geometry": { "type": "Point", "coordinates": [ -51.9306641, -23.4162117 ] } },
{ "type": "Feature", "properties": { "osm_id": 1383889135, "tipo": "way", "categoria": "saude", "nome": "UBS Vila Operária", "amenity": "clinic", "leisure": "", "shop": "", "highway": "" }, "geometry": { "type": "Point", "coordinates": [ -51.9212676, -23.4269396 ] } },
{ "type": "Feature", "properties": { "osm_id": 1383889485, "tipo": "way", "categoria": "saude", "nome": "UBS Jardim Internorte", "amenity": "clinic", "leisure": "", "shop": "", "highway": "" }, "geometry": { "type": "Point", "coordinates": [ -51.901725, -23.4269169 ] } },
{ "type": "Feature", "properties": { "osm_id": 1383889835, "tipo": "way", "categoria": "saude", "nome": "UBS São Silvestre", "amenity": "clinic", "leisure": "", "shop": "", "highway": "" }, "geometry": { "type": "Point", "coordinates": [ -51.9114997, -23.4547768 ] } },
{ "type": "Feature", "properties": { "osm_id": 1383889896, "tipo": "way", "categoria": "saude", "nome": "UBS Jardim Paraíso", "amenity": "clinic", "leisure": "", "shop": "", "highway": "" }, "geometry": { "type": "Point", "coordinates": [ -51.9141073, -23.4684624 ] } },
{ "type": "Feature", "properties": { "osm_id": 1383890648, "tipo": "way", "categoria": "saude", "nome": "UBS Jardim Universo", "amenity": "clinic", "leisure": "", "shop": "", "highway": "" }, "geometry": { "type": "Point", "coordinates": [ -51.9486517, -23.457264 ] } },
{ "type": "Feature", "properties": { "osm_id": 1383898663, "tipo": "way", "categoria": "saude", "nome": "UBS Jardim Industrial", "amenity": "clinic", "leisure": "", "shop": "", "highway": "" }, "geometry": { "type": "Point", "coordinates": [ -51.9772349, -23.4445731 ] } },
{ "type": "Feature", "properties": { "osm_id": 1506003797, "tipo": "way", "categoria": "saude", "nome": "Sem nome", "amenity": "hospital", "leisure": "", "shop": "", "highway": "" }, "geometry": { "type": "Point", "coordinates": [ -51.9600026, -23.4365076 ] } },
{ "type": "Feature", "properties": { "osm_id": 1506003798, "tipo": "way", "categoria": "saude", "nome": "Sem nome", "amenity": "hospital", "leisure": "", "shop": "", "highway": "" }, "geometry": { "type": "Point", "coordinates": [ -51.9613349, -23.437873 ] } },
{ "type": "Feature", "properties": { "osm_id": 1506003802, "tipo": "way", "categoria": "saude", "nome": "Sem nome", "amenity": "hospital", "leisure": "", "shop": "", "highway": "" }, "geometry": { "type": "Point", "coordinates": [ -51.9629571, -23.4390172 ] } },
{ "type": "Feature", "properties": { "osm_id": 1506003804, "tipo": "way", "categoria": "saude", "nome": "Sem nome", "amenity": "hospital", "leisure": "", "shop": "", "highway": "" }, "geometry": { "type": "Point", "coordinates": [ -51.96326, -23.4379327 ] } },
{ "type": "Feature", "properties": { "osm_id": 1506003808, "tipo": "way", "categoria": "saude", "nome": "Sem nome", "amenity": "hospital", "leisure": "", "shop": "", "highway": "" }, "geometry": { "type": "Point", "coordinates": [ -51.9595971, -23.4356232 ] } },
{ "type": "Feature", "properties": { "osm_id": 1506003809, "tipo": "way", "categoria": "saude", "nome": "Sem nome", "amenity": "hospital", "leisure": "", "shop": "", "highway": "" }, "geometry": { "type": "Point", "coordinates": [ -51.9616477, -23.4352452 ] } },
{ "type": "Feature", "properties": { "osm_id": 1506003817, "tipo": "way", "categoria": "saude", "nome": "Sem nome", "amenity": "hospital", "leisure": "", "shop": "", "highway": "" }, "geometry": { "type": "Point", "coordinates": [ -51.9615845, -23.436327 ] } },
{ "type": "Feature", "properties": { "osm_id": 1506003829, "tipo": "way", "categoria": "saude", "nome": "Sem nome", "amenity": "hospital", "leisure": "", "shop": "", "highway": "" }, "geometry": { "type": "Point", "coordinates": [ -51.9556716, -23.4407176 ] } },
{ "type": "Feature", "properties": { "osm_id": 1506003832, "tipo": "way", "categoria": "saude", "nome": "Sem nome", "amenity": "hospital", "leisure": "", "shop": "", "highway": "" }, "geometry": { "type": "Point", "coordinates": [ -51.9554869, -23.4400943 ] } },
{ "type": "Feature", "properties": { "osm_id": 1506003834, "tipo": "way", "categoria": "saude", "nome": "Sem nome", "amenity": "hospital", "leisure": "", "shop": "", "highway": "" }, "geometry": { "type": "Point", "coordinates": [ -51.9556866, -23.4397697 ] } },
{ "type": "Feature", "properties": { "osm_id": 1506003835, "tipo": "way", "categoria": "saude", "nome": "Sem nome", "amenity": "hospital", "leisure": "", "shop": "", "highway": "" }, "geometry": { "type": "Point", "coordinates": [ -51.9554897, -23.4392685 ] } },
{ "type": "Feature", "properties": { "osm_id": 1506003836, "tipo": "way", "categoria": "saude", "nome": "Sem nome", "amenity": "hospital", "leisure": "", "shop": "", "highway": "" }, "geometry": { "type": "Point", "coordinates": [ -51.9611244, -23.4389424 ] } },
{ "type": "Feature", "properties": { "osm_id": 1506003837, "tipo": "way", "categoria": "saude", "nome": "Sem nome", "amenity": "hospital", "leisure": "", "shop": "", "highway": "" }, "geometry": { "type": "Point", "coordinates": [ -51.9612245, -23.4385713 ] } },
{ "type": "Feature", "properties": { "osm_id": 1506003838, "tipo": "way", "categoria": "saude", "nome": "Sem nome", "amenity": "hospital", "leisure": "", "shop": "", "highway": "" }, "geometry": { "type": "Point", "coordinates": [ -51.9615639, -23.4387811 ] } },
{ "type": "Feature", "properties": { "osm_id": 1506003842, "tipo": "way", "categoria": "saude", "nome": "Sem nome", "amenity": "hospital", "leisure": "", "shop": "", "highway": "" }, "geometry": { "type": "Point", "coordinates": [ -51.962704, -23.4380001 ] } },
{ "type": "Feature", "properties": { "osm_id": 1506003843, "tipo": "way", "categoria": "saude", "nome": "Sem nome", "amenity": "hospital", "leisure": "", "shop": "", "highway": "" }, "geometry": { "type": "Point", "coordinates": [ -51.9624641, -23.4379665 ] } },
{ "type": "Feature", "properties": { "osm_id": 1506003844, "tipo": "way", "categoria": "saude", "nome": "Sem nome", "amenity": "hospital", "leisure": "", "shop": "", "highway": "" }, "geometry": { "type": "Point", "coordinates": [ -51.9626605, -23.4370033 ] } },
{ "type": "Feature", "properties": { "osm_id": 2161104121, "tipo": "node", "categoria": "educacao", "nome": "Centro de Biotecnologia UniCesumar", "amenity": "college", "leisure": "", "shop": "", "highway": "" }, "geometry": { "type": "Point", "coordinates": [ -51.8730849, -23.3439351 ] } },
{ "type": "Feature", "properties": { "osm_id": 2407532879, "tipo": "node", "categoria": "educacao", "nome": "Colégio Objetivo", "amenity": "school", "leisure": "", "shop": "", "highway": "" }, "geometry": { "type": "Point", "coordinates": [ -51.9161993, -23.4442366 ] } },
{ "type": "Feature", "properties": { "osm_id": 2407606970, "tipo": "node", "categoria": "educacao", "nome": "Escola St. James", "amenity": "kindergarten", "leisure": "", "shop": "", "highway": "" }, "geometry": { "type": "Point", "coordinates": [ -51.9611833, -23.4294158 ] } },
{ "type": "Feature", "properties": { "osm_id": 2408104336, "tipo": "node", "categoria": "educacao", "nome": "Colégio Santo Inácio", "amenity": "school", "leisure": "", "shop": "", "highway": "" }, "geometry": { "type": "Point", "coordinates": [ -51.9200023, -23.4227581 ] } },
{ "type": "Feature", "properties": { "osm_id": 2682138505, "tipo": "node", "categoria": "educacao", "nome": "Centro Universitário Cidade Verde", "amenity": "college", "leisure": "", "shop": "", "highway": "" }, "geometry": { "type": "Point", "coordinates": [ -51.9392704, -23.4179907 ] } },
{ "type": "Feature", "properties": { "osm_id": 4726295753, "tipo": "node", "categoria": "educacao", "nome": "Escola Mater Dei Júnior", "amenity": "school", "leisure": "", "shop": "", "highway": "" }, "geometry": { "type": "Point", "coordinates": [ -51.9393016, -23.3830002 ] } },
{ "type": "Feature", "properties": { "osm_id": 5457805639, "tipo": "node", "categoria": "educacao", "nome": "DeRose Method Maringá", "amenity": "college", "leisure": "", "shop": "", "highway": "" }, "geometry": { "type": "Point", "coordinates": [ -51.9368932, -23.4297451 ] } },
{ "type": "Feature", "properties": { "osm_id": 5643034526, "tipo": "node", "categoria": "educacao", "nome": "UniCesumar - Campus Maringá", "amenity": "school", "leisure": "", "shop": "", "highway": "" }, "geometry": { "type": "Point", "coordinates": [ -51.915483, -23.4434362 ] } },
{ "type": "Feature", "properties": { "osm_id": 9436662418, "tipo": "node", "categoria": "educacao", "nome": "Maringá", "amenity": "school", "leisure": "", "shop": "", "highway": "" }, "geometry": { "type": "Point", "coordinates": [ -51.9193296, -23.3748468 ] } },
{ "type": "Feature", "properties": { "osm_id": 9860727642, "tipo": "node", "categoria": "educacao", "nome": "Colégio Anglo Maringá", "amenity": "school", "leisure": "", "shop": "", "highway": "" }, "geometry": { "type": "Point", "coordinates": [ -51.9419668, -23.4221797 ] } },
{ "type": "Feature", "properties": { "osm_id": 13564677915, "tipo": "node", "categoria": "educacao", "nome": "Integral Curso e Colégio", "amenity": "school", "leisure": "", "shop": "", "highway": "" }, "geometry": { "type": "Point", "coordinates": [ -51.9291651, -23.4202851 ] } },
{ "type": "Feature", "properties": { "osm_id": 131707521, "tipo": "way", "categoria": "educacao", "nome": "Universidade Estadual de Maringá", "amenity": "university", "leisure": "", "shop": "", "highway": "" }, "geometry": { "type": "Point", "coordinates": [ -51.9400969, -23.4054468 ] } },
{ "type": "Feature", "properties": { "osm_id": 146706455, "tipo": "way", "categoria": "educacao", "nome": "Senac", "amenity": "college", "leisure": "", "shop": "", "highway": "" }, "geometry": { "type": "Point", "coordinates": [ -51.9404505, -23.411847 ] } },
{ "type": "Feature", "properties": { "osm_id": 146842627, "tipo": "way", "categoria": "educacao", "nome": "Centro Universitário de Maringá", "amenity": "university", "leisure": "", "shop": "", "highway": "" }, "geometry": { "type": "Point", "coordinates": [ -51.9177521, -23.4422801 ] } },
{ "type": "Feature", "properties": { "osm_id": 179689622, "tipo": "way", "categoria": "educacao", "nome": "FEITEP", "amenity": "university", "leisure": "", "shop": "", "highway": "" }, "geometry": { "type": "Point", "coordinates": [ -51.9708552, -23.4228882 ] } },
{ "type": "Feature", "properties": { "osm_id": 205620880, "tipo": "way", "categoria": "educacao", "nome": "CTM-Senai", "amenity": "college", "leisure": "", "shop": "", "highway": "" }, "geometry": { "type": "Point", "coordinates": [ -51.9210611, -23.457025 ] } },
{ "type": "Feature", "properties": { "osm_id": 205625801, "tipo": "way", "categoria": "educacao", "nome": "Cólégio Estadual Cívico-Militar Vinícius de Moraes", "amenity": "school", "leisure": "", "shop": "", "highway": "" }, "geometry": { "type": "Point", "coordinates": [ -51.9198376, -23.4613303 ] } },
{ "type": "Feature", "properties": { "osm_id": 206103511, "tipo": "way", "categoria": "educacao", "nome": "Faculdade Ingá", "amenity": "university", "leisure": "", "shop": "", "highway": "" }, "geometry": { "type": "Point", "coordinates": [ -51.8974932, -23.3685446 ] } },
{ "type": "Feature", "properties": { "osm_id": 215124488, "tipo": "way", "categoria": "educacao", "nome": "Colégio Estadual Doutor Gastão Vidigal", "amenity": "school", "leisure": "", "shop": "", "highway": "" }, "geometry": { "type": "Point", "coordinates": [ -51.935625, -23.411919 ] } },
{ "type": "Feature", "properties": { "osm_id": 227052769, "tipo": "way", "categoria": "educacao", "nome": "Escola Notre Dame", "amenity": "school", "leisure": "", "shop": "", "highway": "" }, "geometry": { "type": "Point", "coordinates": [ -51.9604426, -23.4376756 ] } },
{ "type": "Feature", "properties": { "osm_id": 227052771, "tipo": "way", "categoria": "educacao", "nome": "Instituto de Educação Estadual de Maringá", "amenity": "school", "leisure": "", "shop": "", "highway": "" }, "geometry": { "type": "Point", "coordinates": [ -51.9397729, -23.4277916 ] } },
{ "type": "Feature", "properties": { "osm_id": 227084936, "tipo": "way", "categoria": "educacao", "nome": "Escola Municipal Professor José Aniceto", "amenity": "school", "leisure": "", "shop": "", "highway": "" }, "geometry": { "type": "Point", "coordinates": [ -51.9597748, -23.4215071 ] } },
{ "type": "Feature", "properties": { "osm_id": 232401018, "tipo": "way", "categoria": "educacao", "nome": "Colégio Marista de Maringá", "amenity": "school", "leisure": "", "shop": "", "highway": "" }, "geometry": { "type": "Point", "coordinates": [ -51.9424118, -23.4270573 ] } },
{ "type": "Feature", "properties": { "osm_id": 232401661, "tipo": "way", "categoria": "educacao", "nome": "SESI - SENAI", "amenity": "school", "leisure": "", "shop": "", "highway": "" }, "geometry": { "type": "Point", "coordinates": [ -51.9570251, -23.4256141 ] } },
{ "type": "Feature", "properties": { "osm_id": 232404577, "tipo": "way", "categoria": "educacao", "nome": "Colégio Platão", "amenity": "school", "leisure": "", "shop": "", "highway": "" }, "geometry": { "type": "Point", "coordinates": [ -51.9504795, -23.4202238 ] } },
{ "type": "Feature", "properties": { "osm_id": 232410509, "tipo": "way", "categoria": "educacao", "nome": "Colégio Regina Mundi", "amenity": "school", "leisure": "", "shop": "", "highway": "" }, "geometry": { "type": "Point", "coordinates": [ -51.9316951, -23.4304704 ] } },
{ "type": "Feature", "properties": { "osm_id": 232691975, "tipo": "way", "categoria": "educacao", "nome": "Colégio Carlos Démia", "amenity": "school", "leisure": "", "shop": "", "highway": "" }, "geometry": { "type": "Point", "coordinates": [ -51.9551607, -23.4528485 ] } },
{ "type": "Feature", "properties": { "osm_id": 255622350, "tipo": "way", "categoria": "educacao", "nome": "Colégio Adventista de Maringá", "amenity": "school", "leisure": "", "shop": "", "highway": "" }, "geometry": { "type": "Point", "coordinates": [ -51.9475608, -23.427144 ] } },
{ "type": "Feature", "properties": { "osm_id": 256049083, "tipo": "way", "categoria": "educacao", "nome": "Seminário Arquidiocesano", "amenity": "college", "leisure": "", "shop": "", "highway": "" }, "geometry": { "type": "Point", "coordinates": [ -51.9651047, -23.4145398 ] } },
{ "type": "Feature", "properties": { "osm_id": 256521670, "tipo": "way", "categoria": "educacao", "nome": "Colégio Estadual Cívico-Militar Alberto Jackson Byington Junior", "amenity": "school", "leisure": "", "shop": "", "highway": "" }, "geometry": { "type": "Point", "coordinates": [ -51.958677, -23.433565 ] } },
{ "type": "Feature", "properties": { "osm_id": 329144732, "tipo": "way", "categoria": "educacao", "nome": "Colégio Estadual Cívico-Militar Tomaz Edison de Andrade Vieira", "amenity": "school", "leisure": "", "shop": "", "highway": "" }, "geometry": { "type": "Point", "coordinates": [ -51.9600332, -23.4517711 ] } },
{ "type": "Feature", "properties": { "osm_id": 338422344, "tipo": "way", "categoria": "educacao", "nome": "CMEI Doutor José Luiz Beltran", "amenity": "kindergarten", "leisure": "", "shop": "", "highway": "" }, "geometry": { "type": "Point", "coordinates": [ -51.9775211, -23.4453862 ] } },
{ "type": "Feature", "properties": { "osm_id": 479756371, "tipo": "way", "categoria": "educacao", "nome": "Colégio Mater Dei", "amenity": "school", "leisure": "", "shop": "", "highway": "" }, "geometry": { "type": "Point", "coordinates": [ -51.9384349, -23.382326 ] } },
{ "type": "Feature", "properties": { "osm_id": 479757676, "tipo": "way", "categoria": "educacao", "nome": "Pré-escola Branca de Neve", "amenity": "kindergarten", "leisure": "", "shop": "", "highway": "" }, "geometry": { "type": "Point", "coordinates": [ -51.9279649, -23.4091326 ] } },
{ "type": "Feature", "properties": { "osm_id": 486863246, "tipo": "way", "categoria": "educacao", "nome": "Colégio de Aplicação Pedagócia - UEM", "amenity": "school", "leisure": "", "shop": "", "highway": "" }, "geometry": { "type": "Point", "coordinates": [ -51.9428238, -23.4042164 ] } },
{ "type": "Feature", "properties": { "osm_id": 510042707, "tipo": "way", "categoria": "educacao", "nome": "Colégio Estadual Branca da Mota Fernandes", "amenity": "school", "leisure": "", "shop": "", "highway": "" }, "geometry": { "type": "Point", "coordinates": [ -51.906638, -23.4179689 ] } },
{ "type": "Feature", "properties": { "osm_id": 510883906, "tipo": "way", "categoria": "educacao", "nome": "Escola Municipal Professora Nadyr Maria Alegretti", "amenity": "school", "leisure": "", "shop": "", "highway": "" }, "geometry": { "type": "Point", "coordinates": [ -51.9323227, -23.3800266 ] } },
{ "type": "Feature", "properties": { "osm_id": 510884315, "tipo": "way", "categoria": "educacao", "nome": "Escola Municipal Diderot Alves da Rocha Loures", "amenity": "school", "leisure": "", "shop": "", "highway": "" }, "geometry": { "type": "Point", "coordinates": [ -51.9298795, -23.3784701 ] } },
{ "type": "Feature", "properties": { "osm_id": 520904168, "tipo": "way", "categoria": "educacao", "nome": "Escola Municipal Dona Angelina Lonardon Meneguetti", "amenity": "school", "leisure": "", "shop": "", "highway": "" }, "geometry": { "type": "Point", "coordinates": [ -52.0617769, -23.3794803 ] } },
{ "type": "Feature", "properties": { "osm_id": 520904169, "tipo": "way", "categoria": "educacao", "nome": "Colégio Estadual Rui Barbosa", "amenity": "school", "leisure": "", "shop": "", "highway": "" }, "geometry": { "type": "Point", "coordinates": [ -52.0641971, -23.3712225 ] } },
{ "type": "Feature", "properties": { "osm_id": 520904171, "tipo": "way", "categoria": "educacao", "nome": "Escola Municipal Paulo Freire", "amenity": "school", "leisure": "", "shop": "", "highway": "" }, "geometry": { "type": "Point", "coordinates": [ -52.061202, -23.3736534 ] } },
{ "type": "Feature", "properties": { "osm_id": 520904172, "tipo": "way", "categoria": "educacao", "nome": "CMEI Professor France Luz", "amenity": "kindergarten", "leisure": "", "shop": "", "highway": "" }, "geometry": { "type": "Point", "coordinates": [ -52.0610315, -23.3743605 ] } },
{ "type": "Feature", "properties": { "osm_id": 520904173, "tipo": "way", "categoria": "educacao", "nome": "CMEI Professor Ester Gonçalves Josepetti", "amenity": "kindergarten", "leisure": "", "shop": "", "highway": "" }, "geometry": { "type": "Point", "coordinates": [ -52.0696232, -23.3643459 ] } },
{ "type": "Feature", "properties": { "osm_id": 543914652, "tipo": "way", "categoria": "educacao", "nome": "4º Colégio da Polícia Militar", "amenity": "school", "leisure": "", "shop": "", "highway": "" }, "geometry": { "type": "Point", "coordinates": [ -51.91444, -23.431468 ] } },
{ "type": "Feature", "properties": { "osm_id": 544053020, "tipo": "way", "categoria": "educacao", "nome": "Seminário Santo Agostinho", "amenity": "college", "leisure": "", "shop": "", "highway": "" }, "geometry": { "type": "Point", "coordinates": [ -51.970368, -23.4093443 ] } },
{ "type": "Feature", "properties": { "osm_id": 544585536, "tipo": "way", "categoria": "educacao", "nome": "Escola Municipal Professora Piveni Piassi de Moraes", "amenity": "school", "leisure": "", "shop": "", "highway": "" }, "geometry": { "type": "Point", "coordinates": [ -51.9460045, -23.3847157 ] } },
{ "type": "Feature", "properties": { "osm_id": 544994979, "tipo": "way", "categoria": "educacao", "nome": "CMEl Antonio Facci", "amenity": "kindergarten", "leisure": "", "shop": "", "highway": "" }, "geometry": { "type": "Point", "coordinates": [ -51.938074, -23.3891051 ] } },
{ "type": "Feature", "properties": { "osm_id": 544995145, "tipo": "way", "categoria": "educacao", "nome": "Escola Municipal Professor Midufo Vada", "amenity": "school", "leisure": "", "shop": "", "highway": "" }, "geometry": { "type": "Point", "coordinates": [ -51.9373492, -23.3879327 ] } },
{ "type": "Feature", "properties": { "osm_id": 545060176, "tipo": "way", "categoria": "educacao", "nome": "Colégio Estadual Presidente Kennedy", "amenity": "school", "leisure": "", "shop": "", "highway": "" }, "geometry": { "type": "Point", "coordinates": [ -51.9540526, -23.4145226 ] } },
{ "type": "Feature", "properties": { "osm_id": 545108830, "tipo": "way", "categoria": "educacao", "nome": "Colégio Estadual Dirce de Aguiar Maia", "amenity": "school", "leisure": "", "shop": "", "highway": "" }, "geometry": { "type": "Point", "coordinates": [ -51.9589144, -23.4052628 ] } },
{ "type": "Feature", "properties": { "osm_id": 545757473, "tipo": "way", "categoria": "educacao", "nome": "Sem nome", "amenity": "school", "leisure": "", "shop": "", "highway": "" }, "geometry": { "type": "Point", "coordinates": [ -51.914406, -23.4315908 ] } },
{ "type": "Feature", "properties": { "osm_id": 545757474, "tipo": "way", "categoria": "educacao", "nome": "Sem nome", "amenity": "school", "leisure": "", "shop": "", "highway": "" }, "geometry": { "type": "Point", "coordinates": [ -51.9141097, -23.4313898 ] } },
{ "type": "Feature", "properties": { "osm_id": 546680048, "tipo": "way", "categoria": "educacao", "nome": "Colégio Santa Cruz", "amenity": "school", "leisure": "", "shop": "", "highway": "" }, "geometry": { "type": "Point", "coordinates": [ -51.9544496, -23.4222499 ] } },
{ "type": "Feature", "properties": { "osm_id": 546893726, "tipo": "way", "categoria": "educacao", "nome": "Colégio Nobel Ensino Médio e Cursinho", "amenity": "school", "leisure": "", "shop": "", "highway": "" }, "geometry": { "type": "Point", "coordinates": [ -51.9477249, -23.407303 ] } },
{ "type": "Feature", "properties": { "osm_id": 546914570, "tipo": "way", "categoria": "educacao", "nome": "CMEI Irmã Firmina Maria", "amenity": "kindergarten", "leisure": "", "shop": "", "highway": "" }, "geometry": { "type": "Point", "coordinates": [ -51.9082466, -23.3873386 ] } },
{ "type": "Feature", "properties": { "osm_id": 578667964, "tipo": "way", "categoria": "educacao", "nome": "Colégio Nobel Ed. Infantil e Ens. Fundamental", "amenity": "school", "leisure": "", "shop": "", "highway": "" }, "geometry": { "type": "Point", "coordinates": [ -51.9461151, -23.4065185 ] } },
{ "type": "Feature", "properties": { "osm_id": 578667973, "tipo": "way", "categoria": "educacao", "nome": "CMEI Elizete Aparecida Romagnoli Piveta Assunção", "amenity": "kindergarten", "leisure": "", "shop": "", "highway": "" }, "geometry": { "type": "Point", "coordinates": [ -51.9505938, -23.4055387 ] } },
{ "type": "Feature", "properties": { "osm_id": 624227901, "tipo": "way", "categoria": "educacao", "nome": "Escola Municipal José Hiran Sallée", "amenity": "school", "leisure": "", "shop": "", "highway": "" }, "geometry": { "type": "Point", "coordinates": [ -51.9755462, -23.3890042 ] } },
{ "type": "Feature", "properties": { "osm_id": 656079933, "tipo": "way", "categoria": "educacao", "nome": "Colégio Estadual Tânia Varella Ferreira", "amenity": "school", "leisure": "", "shop": "", "highway": "" }, "geometry": { "type": "Point", "coordinates": [ -51.8742293, -23.4104028 ] } },
{ "type": "Feature", "properties": { "osm_id": 662938511, "tipo": "way", "categoria": "educacao", "nome": "Escola Estadual Elvira Balani dos Santos", "amenity": "school", "leisure": "", "shop": "", "highway": "" }, "geometry": { "type": "Point", "coordinates": [ -51.9681076, -23.4259299 ] } },
{ "type": "Feature", "properties": { "osm_id": 723246206, "tipo": "way", "categoria": "educacao", "nome": "Escola Municipal Doutor Osvaldo Cruz", "amenity": "school", "leisure": "", "shop": "", "highway": "" }, "geometry": { "type": "Point", "coordinates": [ -51.9311361, -23.4217324 ] } },
{ "type": "Feature", "properties": { "osm_id": 801721756, "tipo": "way", "categoria": "educacao", "nome": "CMEI Vereador José Rodrigues dos Santos", "amenity": "kindergarten", "leisure": "", "shop": "", "highway": "" }, "geometry": { "type": "Point", "coordinates": [ -51.9115484, -23.3872658 ] } },
{ "type": "Feature", "properties": { "osm_id": 845121036, "tipo": "way", "categoria": "educacao", "nome": "Colégio Estadual do Campo de Floriano/Escola Municipal Dona Lázara Ribeiro Vilella", "amenity": "school", "leisure": "", "shop": "", "highway": "" }, "geometry": { "type": "Point", "coordinates": [ -52.0534326, -23.5256786 ] } },
{ "type": "Feature", "properties": { "osm_id": 881282858, "tipo": "way", "categoria": "educacao", "nome": "Colégio São Francisco Xavier", "amenity": "school", "leisure": "", "shop": "", "highway": "" }, "geometry": { "type": "Point", "coordinates": [ -51.9344048, -23.4380698 ] } },
{ "type": "Feature", "properties": { "osm_id": 1005656291, "tipo": "way", "categoria": "educacao", "nome": "Lar Escola da Criança", "amenity": "school", "leisure": "", "shop": "", "highway": "" }, "geometry": { "type": "Point", "coordinates": [ -51.9352735, -23.4407135 ] } },
{ "type": "Feature", "properties": { "osm_id": 1005656295, "tipo": "way", "categoria": "educacao", "nome": "Colégio Estadual Brasílio Itiberê", "amenity": "school", "leisure": "", "shop": "", "highway": "" }, "geometry": { "type": "Point", "coordinates": [ -51.9393641, -23.4333788 ] } },
{ "type": "Feature", "properties": { "osm_id": 1046948464, "tipo": "way", "categoria": "educacao", "nome": "FIEP", "amenity": "college", "leisure": "", "shop": "", "highway": "" }, "geometry": { "type": "Point", "coordinates": [ -51.9163176, -23.4223537 ] } },
{ "type": "Feature", "properties": { "osm_id": 1067562371, "tipo": "way", "categoria": "educacao", "nome": "Colégio Estadual Rodrigues Alves", "amenity": "school", "leisure": "", "shop": "", "highway": "" }, "geometry": { "type": "Point", "coordinates": [ -51.928678, -23.4051814 ] } },
{ "type": "Feature", "properties": { "osm_id": 1067863885, "tipo": "way", "categoria": "educacao", "nome": "Instituto da Música", "amenity": "college", "leisure": "", "shop": "", "highway": "" }, "geometry": { "type": "Point", "coordinates": [ -51.9371181, -23.429668 ] } },
{ "type": "Feature", "properties": { "osm_id": 1243331298, "tipo": "way", "categoria": "educacao", "nome": "CMEI Vanor Henriques", "amenity": "school", "leisure": "", "shop": "", "highway": "" }, "geometry": { "type": "Point", "coordinates": [ -51.9268589, -23.4542349 ] } },
{ "type": "Feature", "properties": { "osm_id": 1383023883, "tipo": "way", "categoria": "educacao", "nome": "CMEI Herbert José de Souza", "amenity": "kindergarten", "leisure": "", "shop": "", "highway": "" }, "geometry": { "type": "Point", "coordinates": [ -51.8748181, -23.4102093 ] } },
{ "type": "Feature", "properties": { "osm_id": 1383023884, "tipo": "way", "categoria": "educacao", "nome": "Escola Municipal Ângela Virginia Borin", "amenity": "school", "leisure": "", "shop": "", "highway": "" }, "geometry": { "type": "Point", "coordinates": [ -51.8739506, -23.4110197 ] } },
{ "type": "Feature", "properties": { "osm_id": 1383563594, "tipo": "way", "categoria": "educacao", "nome": "Colégio Estadual Adaile Maria Leite", "amenity": "school", "leisure": "", "shop": "", "highway": "" }, "geometry": { "type": "Point", "coordinates": [ -51.8882346, -23.4141642 ] } },
{ "type": "Feature", "properties": { "osm_id": 1383564148, "tipo": "way", "categoria": "educacao", "nome": "Colégio Estadual João de Faria Pioli", "amenity": "school", "leisure": "", "shop": "", "highway": "" }, "geometry": { "type": "Point", "coordinates": [ -51.9127113, -23.4146324 ] } },
{ "type": "Feature", "properties": { "osm_id": 1383564582, "tipo": "way", "categoria": "educacao", "nome": "Colégio Estadual Tancredo de Almeida Neves", "amenity": "school", "leisure": "", "shop": "", "highway": "" }, "geometry": { "type": "Point", "coordinates": [ -51.8948479, -23.4028709 ] } },
{ "type": "Feature", "properties": { "osm_id": 1383564921, "tipo": "way", "categoria": "educacao", "nome": "Colégio Estadual Cívico-Militar Duque de Caxias", "amenity": "school", "leisure": "", "shop": "", "highway": "" }, "geometry": { "type": "Point", "coordinates": [ -51.9199228, -23.4037259 ] } },
{ "type": "Feature", "properties": { "osm_id": 1383565369, "tipo": "way", "categoria": "educacao", "nome": "Colégio Estadual Unidade Polo", "amenity": "school", "leisure": "", "shop": "", "highway": "" }, "geometry": { "type": "Point", "coordinates": [ -51.9149856, -23.3965915 ] } },
{ "type": "Feature", "properties": { "osm_id": 1383568217, "tipo": "way", "categoria": "educacao", "nome": "Colégio Estadual Alfredo Moisés Maluf", "amenity": "school", "leisure": "", "shop": "", "highway": "" }, "geometry": { "type": "Point", "coordinates": [ -51.9405563, -23.3811994 ] } },
{ "type": "Feature", "properties": { "osm_id": 1383569356, "tipo": "way", "categoria": "educacao", "nome": "Centro Estadual de Educação Profissional Padre Joseir Sversutti", "amenity": "school", "leisure": "", "shop": "", "highway": "" }, "geometry": { "type": "Point", "coordinates": [ -51.9801656, -23.4044029 ] } },
{ "type": "Feature", "properties": { "osm_id": 1383571037, "tipo": "way", "categoria": "educacao", "nome": "Colégio Estadual Juscelino Kubitschek de Oliveira", "amenity": "school", "leisure": "", "shop": "", "highway": "" }, "geometry": { "type": "Point", "coordinates": [ -51.9720249, -23.4322354 ] } },
{ "type": "Feature", "properties": { "osm_id": 1383571883, "tipo": "way", "categoria": "educacao", "nome": "Colégio Estadual Santa Maria Goretti", "amenity": "school", "leisure": "", "shop": "", "highway": "" }, "geometry": { "type": "Point", "coordinates": [ -51.9544734, -23.4212698 ] } },
{ "type": "Feature", "properties": { "osm_id": 1383572865, "tipo": "way", "categoria": "educacao", "nome": "Colégio Estadual Cívico-Miltar Ipiranga", "amenity": "school", "leisure": "", "shop": "", "highway": "" }, "geometry": { "type": "Point", "coordinates": [ -51.9487139, -23.4160375 ] } },
{ "type": "Feature", "properties": { "osm_id": 1383573046, "tipo": "way", "categoria": "educacao", "nome": "Colégio Estadual Sílvio Magalhães Barros", "amenity": "school", "leisure": "", "shop": "", "highway": "" }, "geometry": { "type": "Point", "coordinates": [ -51.9674614, -23.3944154 ] } },
{ "type": "Feature", "properties": { "osm_id": 1383574847, "tipo": "way", "categoria": "educacao", "nome": "Colégio Estadual Vital Brasil", "amenity": "school", "leisure": "", "shop": "", "highway": "" }, "geometry": { "type": "Point", "coordinates": [ -51.9316239, -23.4158872 ] } },
{ "type": "Feature", "properties": { "osm_id": 1383575218, "tipo": "way", "categoria": "educacao", "nome": "Colégio Estadual Theobaldo Miranda Santos", "amenity": "school", "leisure": "", "shop": "", "highway": "" }, "geometry": { "type": "Point", "coordinates": [ -51.9265688, -23.4273119 ] } },
{ "type": "Feature", "properties": { "osm_id": 1383576715, "tipo": "way", "categoria": "educacao", "nome": "Colégio Estadual Marco Antônio Pimenta", "amenity": "school", "leisure": "", "shop": "", "highway": "" }, "geometry": { "type": "Point", "coordinates": [ -51.8965427, -23.4280742 ] } },
{ "type": "Feature", "properties": { "osm_id": 1383579625, "tipo": "way", "categoria": "educacao", "nome": "Colégio Estadual do Parque Itaipu", "amenity": "school", "leisure": "", "shop": "", "highway": "" }, "geometry": { "type": "Point", "coordinates": [ -51.9751657, -23.4529117 ] } },
{ "type": "Feature", "properties": { "osm_id": 1383580449, "tipo": "way", "categoria": "educacao", "nome": "Escola Municipal Joaquim Maria Machado de Assis", "amenity": "school", "leisure": "", "shop": "", "highway": "" }, "geometry": { "type": "Point", "coordinates": [ -51.8688066, -23.4093202 ] } },
{ "type": "Feature", "properties": { "osm_id": 1383581045, "tipo": "way", "categoria": "educacao", "nome": "Escola Municipal Olga Aiub Ferreira", "amenity": "school", "leisure": "", "shop": "", "highway": "" }, "geometry": { "type": "Point", "coordinates": [ -51.8806378, -23.4082627 ] } },
{ "type": "Feature", "properties": { "osm_id": 1383581626, "tipo": "way", "categoria": "educacao", "nome": "Escola Municipal Professor José Marechesini", "amenity": "school", "leisure": "", "shop": "", "highway": "" }, "geometry": { "type": "Point", "coordinates": [ -51.8864331, -23.4207326 ] } },
{ "type": "Feature", "properties": { "osm_id": 1383582157, "tipo": "way", "categoria": "educacao", "nome": "Escola Municipal Pioneira Mariana Viana Dias", "amenity": "school", "leisure": "", "shop": "", "highway": "" }, "geometry": { "type": "Point", "coordinates": [ -51.8860364, -23.3970517 ] } },
{ "type": "Feature", "properties": { "osm_id": 1383582478, "tipo": "way", "categoria": "educacao", "nome": "Escola Municipal Luiz Gabriel Sampaio", "amenity": "school", "leisure": "", "shop": "", "highway": "" }, "geometry": { "type": "Point", "coordinates": [ -51.9023258, -23.4132703 ] } },
{ "type": "Feature", "properties": { "osm_id": 1383582942, "tipo": "way", "categoria": "educacao", "nome": "Escola Municipal Rosa Palma Planas", "amenity": "school", "leisure": "", "shop": "", "highway": "" }, "geometry": { "type": "Point", "coordinates": [ -51.8995604, -23.4182603 ] } },
{ "type": "Feature", "properties": { "osm_id": 1383593556, "tipo": "way", "categoria": "educacao", "nome": "Escola Municipal Professora Odette Alcântara Rosa", "amenity": "school", "leisure": "", "shop": "", "highway": "" }, "geometry": { "type": "Point", "coordinates": [ -51.8955565, -23.3991816 ] } },
{ "type": "Feature", "properties": { "osm_id": 1383593557, "tipo": "way", "categoria": "educacao", "nome": "Escola Municipal Toninha Mamprim", "amenity": "school", "leisure": "", "shop": "", "highway": "" }, "geometry": { "type": "Point", "coordinates": [ -51.8953319, -23.3988455 ] } },
{ "type": "Feature", "properties": { "osm_id": 1383594203, "tipo": "way", "categoria": "educacao", "nome": "Escola Municipal Professor Geraldo Trajano de França - Em Construção", "amenity": "school", "leisure": "", "shop": "", "highway": "" }, "geometry": { "type": "Point", "coordinates": [ -51.9043698, -23.4055039 ] } },
{ "type": "Feature", "properties": { "osm_id": 1383594953, "tipo": "way", "categoria": "educacao", "nome": "Escola Municipal Pioneiro Geraldo Meneghetti", "amenity": "school", "leisure": "", "shop": "", "highway": "" }, "geometry": { "type": "Point", "coordinates": [ -51.9108085, -23.4105182 ] } },
{ "type": "Feature", "properties": { "osm_id": 1383595672, "tipo": "way", "categoria": "educacao", "nome": "Escola Municipal Zuleide Samways Portes", "amenity": "school", "leisure": "", "shop": "", "highway": "" }, "geometry": { "type": "Point", "coordinates": [ -51.9109742, -23.3999537 ] } },
{ "type": "Feature", "properties": { "osm_id": 1383595882, "tipo": "way", "categoria": "educacao", "nome": "Escola Municipal Maestro Aniceto Matti", "amenity": "school", "leisure": "", "shop": "", "highway": "" }, "geometry": { "type": "Point", "coordinates": [ -51.9049995, -23.3880859 ] } },
{ "type": "Feature", "properties": { "osm_id": 1383596247, "tipo": "way", "categoria": "educacao", "nome": "Escola Municipal Pastor João Barbosa de Macedo", "amenity": "school", "leisure": "", "shop": "", "highway": "" }, "geometry": { "type": "Point", "coordinates": [ -51.9014776, -23.381203 ] } },
{ "type": "Feature", "properties": { "osm_id": 1383597264, "tipo": "way", "categoria": "educacao", "nome": "Escola Municipal Ariovaldo Moreno", "amenity": "school", "leisure": "", "shop": "", "highway": "" }, "geometry": { "type": "Point", "coordinates": [ -51.9217735, -23.3940892 ] } },
{ "type": "Feature", "properties": { "osm_id": 1383597803, "tipo": "way", "categoria": "educacao", "nome": "Escola Municipal José Darcy de Carvalho", "amenity": "school", "leisure": "", "shop": "", "highway": "" }, "geometry": { "type": "Point", "coordinates": [ -51.9422708, -23.3998848 ] } },
{ "type": "Feature", "properties": { "osm_id": 1383598682, "tipo": "way", "categoria": "educacao", "nome": "Escola Municipal Pioneiro Silvino Fernandes Dias", "amenity": "school", "leisure": "", "shop": "", "highway": "" }, "geometry": { "type": "Point", "coordinates": [ -51.9301873, -23.3994131 ] } },
{ "type": "Feature", "properties": { "osm_id": 1383599768, "tipo": "way", "categoria": "educacao", "nome": "Escola Municipal Victor Beloti", "amenity": "school", "leisure": "", "shop": "", "highway": "" }, "geometry": { "type": "Point", "coordinates": [ -51.9004952, -23.3622524 ] } },
{ "type": "Feature", "properties": { "osm_id": 1383601274, "tipo": "way", "categoria": "educacao", "nome": "Escola Municipal Professor Milton Santos", "amenity": "school", "leisure": "", "shop": "", "highway": "" }, "geometry": { "type": "Point", "coordinates": [ -51.9262694, -23.3867208 ] } },
{ "type": "Feature", "properties": { "osm_id": 1383603345, "tipo": "way", "categoria": "educacao", "nome": "Escola Municipal Antenor Sanches", "amenity": "school", "leisure": "", "shop": "", "highway": "" }, "geometry": { "type": "Point", "coordinates": [ -51.9468224, -23.3716424 ] } },
{ "type": "Feature", "properties": { "osm_id": 1383645366, "tipo": "way", "categoria": "educacao", "nome": "Escola Municipal Lídia Ribeiro Dutra da Silva", "amenity": "school", "leisure": "", "shop": "", "highway": "" }, "geometry": { "type": "Point", "coordinates": [ -51.9604547, -23.3876718 ] } },
{ "type": "Feature", "properties": { "osm_id": 1383645452, "tipo": "way", "categoria": "educacao", "nome": "Escola Municipal Pioneira Jesuína de Jesus Freitas", "amenity": "school", "leisure": "", "shop": "", "highway": "" }, "geometry": { "type": "Point", "coordinates": [ -51.9597737, -23.4037855 ] } },
{ "type": "Feature", "properties": { "osm_id": 1383645735, "tipo": "way", "categoria": "educacao", "nome": "Escola Municipal Professor Renato Bernardi", "amenity": "school", "leisure": "", "shop": "", "highway": "" }, "geometry": { "type": "Point", "coordinates": [ -51.9711825, -23.3977337 ] } },
{ "type": "Feature", "properties": { "osm_id": 1383646506, "tipo": "way", "categoria": "educacao", "nome": "Escola Municipal Doutor Ulisses Guimarães", "amenity": "school", "leisure": "", "shop": "", "highway": "" }, "geometry": { "type": "Point", "coordinates": [ -51.9788495, -23.3969552 ] } },
{ "type": "Feature", "properties": { "osm_id": 1383647072, "tipo": "way", "categoria": "educacao", "nome": "Escola Municial Célestin Freinet", "amenity": "school", "leisure": "", "shop": "", "highway": "" }, "geometry": { "type": "Point", "coordinates": [ -51.9786251, -23.4117775 ] } },
{ "type": "Feature", "properties": { "osm_id": 1383648216, "tipo": "way", "categoria": "educacao", "nome": "Escola Municipal Fernão Dias", "amenity": "school", "leisure": "", "shop": "", "highway": "" }, "geometry": { "type": "Point", "coordinates": [ -52.0314563, -23.3842127 ] } },
{ "type": "Feature", "properties": { "osm_id": 1383649085, "tipo": "way", "categoria": "educacao", "nome": "Escola Municipal Ruy Alvino Alegretti", "amenity": "school", "leisure": "", "shop": "", "highway": "" }, "geometry": { "type": "Point", "coordinates": [ -51.9852369, -23.4262864 ] } },
{ "type": "Feature", "properties": { "osm_id": 1383649578, "tipo": "way", "categoria": "educacao", "nome": "Escola Municipal Odete Ribaroli Gomes de Castro", "amenity": "school", "leisure": "", "shop": "", "highway": "" }, "geometry": { "type": "Point", "coordinates": [ -51.95706, -23.4329356 ] } },
{ "type": "Feature", "properties": { "osm_id": 1383650190, "tipo": "way", "categoria": "educacao", "nome": "Escola Municipal Ayrton Plaisant", "amenity": "school", "leisure": "", "shop": "", "highway": "" }, "geometry": { "type": "Point", "coordinates": [ -51.92654, -23.4153346 ] } },
{ "type": "Feature", "properties": { "osm_id": 1383650599, "tipo": "way", "categoria": "educacao", "nome": "Escola Municipal Professor Antonio Carlos Velasque", "amenity": "school", "leisure": "", "shop": "", "highway": "" }, "geometry": { "type": "Point", "coordinates": [ -51.9249424, -23.4207388 ] } },
{ "type": "Feature", "properties": { "osm_id": 1383650707, "tipo": "way", "categoria": "educacao", "nome": "Escola Municipal Gabriela Mistral", "amenity": "school", "leisure": "", "shop": "", "highway": "" }, "geometry": { "type": "Point", "coordinates": [ -51.919112, -23.4307905 ] } },
{ "type": "Feature", "properties": { "osm_id": 1383651043, "tipo": "way", "categoria": "educacao", "nome": "Escola Municipal Campos Salles", "amenity": "school", "leisure": "", "shop": "", "highway": "" }, "geometry": { "type": "Point", "coordinates": [ -51.9045591, -23.4304629 ] } },
{ "type": "Feature", "properties": { "osm_id": 1383651941, "tipo": "way", "categoria": "educacao", "nome": "Escola Municipal Vereador João Batista Sanches", "amenity": "school", "leisure": "", "shop": "", "highway": "" }, "geometry": { "type": "Point", "coordinates": [ -51.9114419, -23.4558504 ] } },
{ "type": "Feature", "properties": { "osm_id": 1383652011, "tipo": "way", "categoria": "educacao", "nome": "Escola Municipal Octávio Periotto", "amenity": "school", "leisure": "", "shop": "", "highway": "" }, "geometry": { "type": "Point", "coordinates": [ -51.9101167, -23.4585768 ] } },
{ "type": "Feature", "properties": { "osm_id": 1383652123, "tipo": "way", "categoria": "educacao", "nome": "Escola Municipal Professor José Galetti", "amenity": "school", "leisure": "", "shop": "", "highway": "" }, "geometry": { "type": "Point", "coordinates": [ -51.9128098, -23.4655695 ] } },
{ "type": "Feature", "properties": { "osm_id": 1383652319, "tipo": "way", "categoria": "educacao", "nome": "Escola Municipal Pioneira Manuel Dias da Silva", "amenity": "school", "leisure": "", "shop": "", "highway": "" }, "geometry": { "type": "Point", "coordinates": [ -51.9126438, -23.4692813 ] } },
{ "type": "Feature", "properties": { "osm_id": 1383652526, "tipo": "way", "categoria": "educacao", "nome": "Escola Municipal Dom Jaime Luiz Coelho", "amenity": "school", "leisure": "", "shop": "", "highway": "" }, "geometry": { "type": "Point", "coordinates": [ -51.9231388, -23.4660964 ] } },
{ "type": "Feature", "properties": { "osm_id": 1383652611, "tipo": "way", "categoria": "educacao", "nome": "Escola Municipal Professora Benedita Natália Lima", "amenity": "school", "leisure": "", "shop": "", "highway": "" }, "geometry": { "type": "Point", "coordinates": [ -51.925323, -23.4587576 ] } },
{ "type": "Feature", "properties": { "osm_id": 1383652729, "tipo": "way", "categoria": "educacao", "nome": "Escola Municipal Padre Pedro Ryo Tanaka", "amenity": "school", "leisure": "", "shop": "", "highway": "" }, "geometry": { "type": "Point", "coordinates": [ -51.9329694, -23.4456967 ] } },
{ "type": "Feature", "properties": { "osm_id": 1383652841, "tipo": "way", "categoria": "educacao", "nome": "Escola Municipal Miriam Leila Palandri", "amenity": "school", "leisure": "", "shop": "", "highway": "" }, "geometry": { "type": "Point", "coordinates": [ -51.9230966, -23.4402545 ] } },
{ "type": "Feature", "properties": { "osm_id": 1383653212, "tipo": "way", "categoria": "educacao", "nome": "Escola Municipal Professora Agmar dos Santos", "amenity": "school", "leisure": "", "shop": "", "highway": "" }, "geometry": { "type": "Point", "coordinates": [ -51.9433039, -23.4550176 ] } },
{ "type": "Feature", "properties": { "osm_id": 1383654472, "tipo": "way", "categoria": "educacao", "nome": "Escola Municipal Professor Geraldo Altoé", "amenity": "school", "leisure": "", "shop": "", "highway": "" }, "geometry": { "type": "Point", "coordinates": [ -51.9517242, -23.4634158 ] } },
{ "type": "Feature", "properties": { "osm_id": 1383654795, "tipo": "way", "categoria": "educacao", "nome": "Escola Municipal Odilon Túlio Vargas", "amenity": "school", "leisure": "", "shop": "", "highway": "" }, "geometry": { "type": "Point", "coordinates": [ -51.9625961, -23.4472179 ] } },
{ "type": "Feature", "properties": { "osm_id": 1383654888, "tipo": "way", "categoria": "educacao", "nome": "Escola Municipal Oscar Pereira dos Santos", "amenity": "school", "leisure": "", "shop": "", "highway": "" }, "geometry": { "type": "Point", "coordinates": [ -51.9782174, -23.4443216 ] } },
{ "type": "Feature", "properties": { "osm_id": 1383759912, "tipo": "way", "categoria": "educacao", "nome": "CMEI Doutora Zilda Arns Neumann", "amenity": "kindergarten", "leisure": "", "shop": "", "highway": "" }, "geometry": { "type": "Point", "coordinates": [ -51.8682615, -23.4097698 ] } },
{ "type": "Feature", "properties": { "osm_id": 1383760846, "tipo": "way", "categoria": "educacao", "nome": "CMEI Anjo da Guarda", "amenity": "kindergarten", "leisure": "", "shop": "", "highway": "" }, "geometry": { "type": "Point", "coordinates": [ -51.8808445, -23.4087138 ] } },
{ "type": "Feature", "properties": { "osm_id": 1383761190, "tipo": "way", "categoria": "educacao", "nome": "CMEI Márcia do Rocio Bittencourt Socreppa - Em Construção", "amenity": "kindergarten", "leisure": "", "shop": "", "highway": "" }, "geometry": { "type": "Point", "coordinates": [ -51.8838235, -23.4114748 ] } },
{ "type": "Feature", "properties": { "osm_id": 1383761480, "tipo": "way", "categoria": "educacao", "nome": "CMEI Pioneira Maria Conceição Ramos Alexandre", "amenity": "kindergarten", "leisure": "", "shop": "", "highway": "" }, "geometry": { "type": "Point", "coordinates": [ -51.882559, -23.417213 ] } },
{ "type": "Feature", "properties": { "osm_id": 1383761840, "tipo": "way", "categoria": "educacao", "nome": "CMEI Dorcelina Folador", "amenity": "kindergarten", "leisure": "", "shop": "", "highway": "" }, "geometry": { "type": "Point", "coordinates": [ -51.8858658, -23.3966242 ] } },
{ "type": "Feature", "properties": { "osm_id": 1383762032, "tipo": "way", "categoria": "educacao", "nome": "CMEI Antonieta Mattos Coutinho", "amenity": "kindergarten", "leisure": "", "shop": "", "highway": "" }, "geometry": { "type": "Point", "coordinates": [ -51.8824734, -23.401442 ] } },
{ "type": "Feature", "properties": { "osm_id": 1383763365, "tipo": "way", "categoria": "educacao", "nome": "CMEI Nadyr Penteado Virmond", "amenity": "kindergarten", "leisure": "", "shop": "", "highway": "" }, "geometry": { "type": "Point", "coordinates": [ -51.8884308, -23.4022364 ] } },
{ "type": "Feature", "properties": { "osm_id": 1383764063, "tipo": "way", "categoria": "educacao", "nome": "CMEI Angela Rossi Rizzo", "amenity": "kindergarten", "leisure": "", "shop": "", "highway": "" }, "geometry": { "type": "Point", "coordinates": [ -51.8985139, -23.4120518 ] } },
{ "type": "Feature", "properties": { "osm_id": 1383764612, "tipo": "way", "categoria": "educacao", "nome": "CMEI Dona Guilhermina Cunha Coelho", "amenity": "kindergarten", "leisure": "", "shop": "", "highway": "" }, "geometry": { "type": "Point", "coordinates": [ -51.8992142, -23.419793 ] } },
{ "type": "Feature", "properties": { "osm_id": 1383764810, "tipo": "way", "categoria": "educacao", "nome": "CMEI Maria Doná Ferraz", "amenity": "kindergarten", "leisure": "", "shop": "", "highway": "" }, "geometry": { "type": "Point", "coordinates": [ -51.896154, -23.3986881 ] } },
{ "type": "Feature", "properties": { "osm_id": 1383765130, "tipo": "way", "categoria": "educacao", "nome": "CMEI Professor Galdino de Andrade", "amenity": "kindergarten", "leisure": "", "shop": "", "highway": "" }, "geometry": { "type": "Point", "coordinates": [ -51.8958655, -23.4034784 ] } },
{ "type": "Feature", "properties": { "osm_id": 1383765338, "tipo": "way", "categoria": "educacao", "nome": "CMEI Afonso Vidal César", "amenity": "kindergarten", "leisure": "", "shop": "", "highway": "" }, "geometry": { "type": "Point", "coordinates": [ -51.9093644, -23.4115671 ] } },
{ "type": "Feature", "properties": { "osm_id": 1383765509, "tipo": "way", "categoria": "educacao", "nome": "CMEI Etelvina Matos Silva", "amenity": "kindergarten", "leisure": "", "shop": "", "highway": "" }, "geometry": { "type": "Point", "coordinates": [ -51.9113898, -23.4103977 ] } },
{ "type": "Feature", "properties": { "osm_id": 1383765882, "tipo": "way", "categoria": "educacao", "nome": "CMEI Professora Iria de Castro", "amenity": "kindergarten", "leisure": "", "shop": "", "highway": "" }, "geometry": { "type": "Point", "coordinates": [ -51.8956364, -23.387484 ] } },
{ "type": "Feature", "properties": { "osm_id": 1383766590, "tipo": "way", "categoria": "educacao", "nome": "CMEI Maria Teresa Claro Gonzaga", "amenity": "kindergarten", "leisure": "", "shop": "", "highway": "" }, "geometry": { "type": "Point", "coordinates": [ -51.9052238, -23.3799338 ] } },
{ "type": "Feature", "properties": { "osm_id": 1383768760, "tipo": "way", "categoria": "educacao", "nome": "CMEI Alexandre e Sophia Rasgulaeff", "amenity": "kindergarten", "leisure": "", "shop": "", "highway": "" }, "geometry": { "type": "Point", "coordinates": [ -51.9238255, -23.4057716 ] } },
{ "type": "Feature", "properties": { "osm_id": 1383769230, "tipo": "way", "categoria": "educacao", "nome": "CMEI Professora Laura Parente Bossolan", "amenity": "kindergarten", "leisure": "", "shop": "", "highway": "" }, "geometry": { "type": "Point", "coordinates": [ -51.9318515, -23.4027342 ] } },
{ "type": "Feature", "properties": { "osm_id": 1383769991, "tipo": "way", "categoria": "educacao", "nome": "CMEI Integrado UEM", "amenity": "kindergarten", "leisure": "", "shop": "", "highway": "" }, "geometry": { "type": "Point", "coordinates": [ -51.9432134, -23.4052927 ] } },
{ "type": "Feature", "properties": { "osm_id": 1383770740, "tipo": "way", "categoria": "educacao", "nome": "CEEBJA Professor Manoel Rodrigues da Silva", "amenity": "school", "leisure": "", "shop": "", "highway": "" }, "geometry": { "type": "Point", "coordinates": [ -51.943963, -23.4084823 ] } },
{ "type": "Feature", "properties": { "osm_id": 1383772302, "tipo": "way", "categoria": "educacao", "nome": "CMEI Dona Geny Correia de Melo", "amenity": "kindergarten", "leisure": "", "shop": "", "highway": "" }, "geometry": { "type": "Point", "coordinates": [ -51.9209869, -23.3816863 ] } },
{ "type": "Feature", "properties": { "osm_id": 1383772501, "tipo": "way", "categoria": "educacao", "nome": "CMEI Irmã Antona", "amenity": "kindergarten", "leisure": "", "shop": "", "highway": "" }, "geometry": { "type": "Point", "coordinates": [ -51.9324446, -23.3807554 ] } },
{ "type": "Feature", "properties": { "osm_id": 1383773765, "tipo": "way", "categoria": "educacao", "nome": "CMEI Ana Chiquetti Men", "amenity": "kindergarten", "leisure": "", "shop": "", "highway": "" }, "geometry": { "type": "Point", "coordinates": [ -51.9331053, -23.3777176 ] } },
{ "type": "Feature", "properties": { "osm_id": 1383773928, "tipo": "way", "categoria": "educacao", "nome": "CMEI Professor Raul Pimenta", "amenity": "kindergarten", "leisure": "", "shop": "", "highway": "" }, "geometry": { "type": "Point", "coordinates": [ -51.9413284, -23.3955001 ] } },
{ "type": "Feature", "properties": { "osm_id": 1383775015, "tipo": "way", "categoria": "educacao", "nome": "CMEI Walkiria Fontes", "amenity": "kindergarten", "leisure": "", "shop": "", "highway": "" }, "geometry": { "type": "Point", "coordinates": [ -51.9408867, -23.3804382 ] } },
{ "type": "Feature", "properties": { "osm_id": 1383775369, "tipo": "way", "categoria": "educacao", "nome": "CMEI Professora Dulse Telles Fereira", "amenity": "kindergarten", "leisure": "", "shop": "", "highway": "" }, "geometry": { "type": "Point", "coordinates": [ -51.9442233, -23.3734864 ] } },
{ "type": "Feature", "properties": { "osm_id": 1383775534, "tipo": "way", "categoria": "educacao", "nome": "CMEI Ademar Schiavone", "amenity": "kindergarten", "leisure": "", "shop": "", "highway": "" }, "geometry": { "type": "Point", "coordinates": [ -51.9455293, -23.3712397 ] } },
{ "type": "Feature", "properties": { "osm_id": 1383776464, "tipo": "way", "categoria": "educacao", "nome": "CMEI Professor Jean Miranda Euflausino", "amenity": "kindergarten", "leisure": "", "shop": "", "highway": "" }, "geometry": { "type": "Point", "coordinates": [ -51.9526169, -23.375245 ] } },
{ "type": "Feature", "properties": { "osm_id": 1383776817, "tipo": "way", "categoria": "educacao", "nome": "CMEI José Claudio Pereira Neto", "amenity": "kindergarten", "leisure": "", "shop": "", "highway": "" }, "geometry": { "type": "Point", "coordinates": [ -51.9652606, -23.3878433 ] } },
{ "type": "Feature", "properties": { "osm_id": 1383777417, "tipo": "way", "categoria": "educacao", "nome": "CMEI Nice Braga", "amenity": "kindergarten", "leisure": "", "shop": "", "highway": "" }, "geometry": { "type": "Point", "coordinates": [ -51.9616642, -23.4079504 ] } },
{ "type": "Feature", "properties": { "osm_id": 1383777852, "tipo": "way", "categoria": "educacao", "nome": "CMEI Bárbara Cecily Netto Barros", "amenity": "kindergarten", "leisure": "", "shop": "", "highway": "" }, "geometry": { "type": "Point", "coordinates": [ -51.9579389, -23.4137722 ] } },
{ "type": "Feature", "properties": { "osm_id": 1383778205, "tipo": "way", "categoria": "educacao", "nome": "CMEI Professora Ambrosina Fernandes Sales", "amenity": "kindergarten", "leisure": "", "shop": "", "highway": "" }, "geometry": { "type": "Point", "coordinates": [ -51.9702738, -23.4040364 ] } },
{ "type": "Feature", "properties": { "osm_id": 1383778777, "tipo": "way", "categoria": "educacao", "nome": "CMEI Florestan Fernandes", "amenity": "kindergarten", "leisure": "", "shop": "", "highway": "" }, "geometry": { "type": "Point", "coordinates": [ -51.9811573, -23.4052387 ] } },
{ "type": "Feature", "properties": { "osm_id": 1383779028, "tipo": "way", "categoria": "educacao", "nome": "CMEI Nilza de Oliveira Pipino", "amenity": "kindergarten", "leisure": "", "shop": "", "highway": "" }, "geometry": { "type": "Point", "coordinates": [ -51.9680033, -23.3939836 ] } },
{ "type": "Feature", "properties": { "osm_id": 1383779384, "tipo": "way", "categoria": "educacao", "nome": "CMEI Benedito Cláudio Pinga Fogo de Oliveira", "amenity": "kindergarten", "leisure": "", "shop": "", "highway": "" }, "geometry": { "type": "Point", "coordinates": [ -51.9712605, -23.3827979 ] } },
{ "type": "Feature", "properties": { "osm_id": 1383779999, "tipo": "way", "categoria": "educacao", "nome": "CMEI Desembargador Zeferino Mozato Krukoski", "amenity": "kindergarten", "leisure": "", "shop": "", "highway": "" }, "geometry": { "type": "Point", "coordinates": [ -51.9791709, -23.397345 ] } },
{ "type": "Feature", "properties": { "osm_id": 1383781424, "tipo": "way", "categoria": "educacao", "nome": "CMEI Professora Clarice de Moraes Caldeira", "amenity": "kindergarten", "leisure": "", "shop": "", "highway": "" }, "geometry": { "type": "Point", "coordinates": [ -52.0565531, -23.379706 ] } },
{ "type": "Feature", "properties": { "osm_id": 1383851432, "tipo": "way", "categoria": "educacao", "nome": "CMEI Pioneira Aparecida Luzia Pires de Moraes", "amenity": "kindergarten", "leisure": "", "shop": "", "highway": "" }, "geometry": { "type": "Point", "coordinates": [ -51.993961, -23.4141232 ] } },
{ "type": "Feature", "properties": { "osm_id": 1383851747, "tipo": "way", "categoria": "educacao", "nome": "CMEI Doutor José Gerardo Braga", "amenity": "kindergarten", "leisure": "", "shop": "", "highway": "" }, "geometry": { "type": "Point", "coordinates": [ -51.9552667, -23.4215207 ] } },
{ "type": "Feature", "properties": { "osm_id": 1383851988, "tipo": "way", "categoria": "educacao", "nome": "CMEI Maria Luiza Sandri Meneguetti", "amenity": "kindergarten", "leisure": "", "shop": "", "highway": "" }, "geometry": { "type": "Point", "coordinates": [ -51.9310498, -23.4160866 ] } },
{ "type": "Feature", "properties": { "osm_id": 1383852315, "tipo": "way", "categoria": "educacao", "nome": "CMEI Pioneira Noemia Maia Kotsifas", "amenity": "kindergarten", "leisure": "", "shop": "", "highway": "" }, "geometry": { "type": "Point", "coordinates": [ -51.9251452, -23.420677 ] } },
{ "type": "Feature", "properties": { "osm_id": 1383852534, "tipo": "way", "categoria": "educacao", "nome": "CMEI Professora Dilce de Lima Ramalho", "amenity": "kindergarten", "leisure": "", "shop": "", "highway": "" }, "geometry": { "type": "Point", "coordinates": [ -51.9137748, -23.4246222 ] } },
{ "type": "Feature", "properties": { "osm_id": 1383852853, "tipo": "way", "categoria": "educacao", "nome": "CMEI Benedito de Souza", "amenity": "kindergarten", "leisure": "", "shop": "", "highway": "" }, "geometry": { "type": "Point", "coordinates": [ -51.9202367, -23.4286119 ] } },
{ "type": "Feature", "properties": { "osm_id": 1383853378, "tipo": "way", "categoria": "educacao", "nome": "CMEI João XXIII", "amenity": "kindergarten", "leisure": "", "shop": "", "highway": "" }, "geometry": { "type": "Point", "coordinates": [ -51.9119589, -23.4325118 ] } },
{ "type": "Feature", "properties": { "osm_id": 1383854664, "tipo": "way", "categoria": "educacao", "nome": "CMEI Mafalda Noemia Barletta Villanova", "amenity": "kindergarten", "leisure": "", "shop": "", "highway": "" }, "geometry": { "type": "Point", "coordinates": [ -51.8991953, -23.4502875 ] } },
{ "type": "Feature", "properties": { "osm_id": 1383854891, "tipo": "way", "categoria": "educacao", "nome": "CMEI Lia Therezinha Sambatti", "amenity": "kindergarten", "leisure": "", "shop": "", "highway": "" }, "geometry": { "type": "Point", "coordinates": [ -51.9103299, -23.4528476 ] } },
{ "type": "Feature", "properties": { "osm_id": 1383855306, "tipo": "way", "categoria": "educacao", "nome": "CMEI Professora Alba de Araújo da Rocha Loures", "amenity": "kindergarten", "leisure": "", "shop": "", "highway": "" }, "geometry": { "type": "Point", "coordinates": [ -51.9154997, -23.4591668 ] } },
{ "type": "Feature", "properties": { "osm_id": 1383855620, "tipo": "way", "categoria": "educacao", "nome": "CMEI José Pacheco dos Santos", "amenity": "kindergarten", "leisure": "", "shop": "", "highway": "" }, "geometry": { "type": "Point", "coordinates": [ -51.9132978, -23.4651889 ] } },
{ "type": "Feature", "properties": { "osm_id": 1383855904, "tipo": "way", "categoria": "educacao", "nome": "CMEI Winifred Ethel Netto", "amenity": "kindergarten", "leisure": "", "shop": "", "highway": "" }, "geometry": { "type": "Point", "coordinates": [ -51.9229804, -23.4628319 ] } },
{ "type": "Feature", "properties": { "osm_id": 1383856213, "tipo": "way", "categoria": "educacao", "nome": "CMEI Professora Tereza Leonel", "amenity": "kindergarten", "leisure": "", "shop": "", "highway": "" }, "geometry": { "type": "Point", "coordinates": [ -51.9256847, -23.468196 ] } },
{ "type": "Feature", "properties": { "osm_id": 1383856697, "tipo": "way", "categoria": "educacao", "nome": "CMEI Monsenhor Kimura", "amenity": "kindergarten", "leisure": "", "shop": "", "highway": "" }, "geometry": { "type": "Point", "coordinates": [ -51.9334062, -23.4457417 ] } },
{ "type": "Feature", "properties": { "osm_id": 1383857364, "tipo": "way", "categoria": "educacao", "nome": "CMEI Maria de Lourdes Batista Vale Bom", "amenity": "kindergarten", "leisure": "", "shop": "", "highway": "" }, "geometry": { "type": "Point", "coordinates": [ -51.9479934, -23.4267205 ] } },
{ "type": "Feature", "properties": { "osm_id": 1383857672, "tipo": "way", "categoria": "educacao", "nome": "CMEI José de Anchieta", "amenity": "kindergarten", "leisure": "", "shop": "", "highway": "" }, "geometry": { "type": "Point", "coordinates": [ -51.9494484, -23.4371473 ] } },
{ "type": "Feature", "properties": { "osm_id": 1383857982, "tipo": "way", "categoria": "educacao", "nome": "CMEI Cecília Meireles", "amenity": "kindergarten", "leisure": "", "shop": "", "highway": "" }, "geometry": { "type": "Point", "coordinates": [ -51.9619979, -23.4474808 ] } },
{ "type": "Feature", "properties": { "osm_id": 1383858187, "tipo": "way", "categoria": "educacao", "nome": "CMEI Purificação de Jesus Valente", "amenity": "kindergarten", "leisure": "", "shop": "", "highway": "" }, "geometry": { "type": "Point", "coordinates": [ -51.9437018, -23.455235 ] } },
{ "type": "Feature", "properties": { "osm_id": 1383860845, "tipo": "way", "categoria": "educacao", "nome": "CMEI Padre Francisco Robi", "amenity": "kindergarten", "leisure": "", "shop": "", "highway": "" }, "geometry": { "type": "Point", "coordinates": [ -51.9559852, -23.4646404 ] } },
{ "type": "Feature", "properties": { "osm_id": 1383861678, "tipo": "way", "categoria": "educacao", "nome": "CMEI Luiza Martos Murcia Fontes", "amenity": "kindergarten", "leisure": "", "shop": "", "highway": "" }, "geometry": { "type": "Point", "coordinates": [ -51.976907, -23.4448275 ] } },
{ "type": "Feature", "properties": { "osm_id": 1383880472, "tipo": "way", "categoria": "educacao", "nome": "CMEI Pioneira Tereza Martins Fernandes", "amenity": "kindergarten", "leisure": "", "shop": "", "highway": "" }, "geometry": { "type": "Point", "coordinates": [ -52.0515312, -23.5232926 ] } },
{ "type": "Feature", "properties": { "osm_id": 1219446111, "tipo": "node", "categoria": "mobilidade", "nome": "PR-317", "amenity": "", "leisure": "", "shop": "", "highway": "bus_stop" }, "geometry": { "type": "Point", "coordinates": [ -52.0336097, -23.5292947 ] } },
{ "type": "Feature", "properties": { "osm_id": 1599531744, "tipo": "node", "categoria": "mobilidade", "nome": "Avenida Brasil, 6698", "amenity": "", "leisure": "", "shop": "", "highway": "bus_stop" }, "geometry": { "type": "Point", "coordinates": [ -51.9663355, -23.4274104 ] } },
{ "type": "Feature", "properties": { "osm_id": 1599531746, "tipo": "node", "categoria": "mobilidade", "nome": "Praça Rotary Internacional", "amenity": "", "leisure": "", "shop": "", "highway": "bus_stop" }, "geometry": { "type": "Point", "coordinates": [ -51.9641236, -23.4268054 ] } },
{ "type": "Feature", "properties": { "osm_id": 1953504705, "tipo": "node", "categoria": "mobilidade", "nome": "Rua Joubert de Carvalho, 303", "amenity": "", "leisure": "", "shop": "", "highway": "bus_stop" }, "geometry": { "type": "Point", "coordinates": [ -51.9360234, -23.4199548 ] } },
{ "type": "Feature", "properties": { "osm_id": 1953542846, "tipo": "node", "categoria": "mobilidade", "nome": "Avenida Mauá, 3051", "amenity": "", "leisure": "", "shop": "", "highway": "bus_stop" }, "geometry": { "type": "Point", "coordinates": [ -51.9320792, -23.4200319 ] } },
{ "type": "Feature", "properties": { "osm_id": 1953546203, "tipo": "node", "categoria": "mobilidade", "nome": "Avenida Mauá, 2857", "amenity": "", "leisure": "", "shop": "", "highway": "bus_stop" }, "geometry": { "type": "Point", "coordinates": [ -51.9300549, -23.420043 ] } },
{ "type": "Feature", "properties": { "osm_id": 1953553448, "tipo": "node", "categoria": "mobilidade", "nome": "Avenida Brasil, 2503", "amenity": "", "leisure": "", "shop": "", "highway": "bus_stop" }, "geometry": { "type": "Point", "coordinates": [ -51.9264944, -23.4220091 ] } },
{ "type": "Feature", "properties": { "osm_id": 1953563784, "tipo": "node", "categoria": "mobilidade", "nome": "Avenida Brasil, 2155", "amenity": "", "leisure": "", "shop": "", "highway": "bus_stop" }, "geometry": { "type": "Point", "coordinates": [ -51.9233371, -23.4231239 ] } },
{ "type": "Feature", "properties": { "osm_id": 1953567502, "tipo": "node", "categoria": "mobilidade", "nome": "Avenida Brasil, 1887", "amenity": "", "leisure": "", "shop": "", "highway": "bus_stop" }, "geometry": { "type": "Point", "coordinates": [ -51.9209735, -23.4239741 ] } },
{ "type": "Feature", "properties": { "osm_id": 1953578060, "tipo": "node", "categoria": "mobilidade", "nome": "Avenida Brasil, 1577", "amenity": "", "leisure": "", "shop": "", "highway": "bus_stop" }, "geometry": { "type": "Point", "coordinates": [ -51.9180841, -23.4249691 ] } },
{ "type": "Feature", "properties": { "osm_id": 1953585691, "tipo": "node", "categoria": "mobilidade", "nome": "Avenida Brasil, 1249", "amenity": "", "leisure": "", "shop": "", "highway": "bus_stop" }, "geometry": { "type": "Point", "coordinates": [ -51.9151256, -23.4259917 ] } },
{ "type": "Feature", "properties": { "osm_id": 1953590976, "tipo": "node", "categoria": "mobilidade", "nome": "Avenida Tuiuti, 506", "amenity": "", "leisure": "", "shop": "", "highway": "bus_stop" }, "geometry": { "type": "Point", "coordinates": [ -51.9089949, -23.4234755 ] } },
{ "type": "Feature", "properties": { "osm_id": 1953593847, "tipo": "node", "categoria": "mobilidade", "nome": "Avenida Tuiuti, 920", "amenity": "", "leisure": "", "shop": "", "highway": "bus_stop" }, "geometry": { "type": "Point", "coordinates": [ -51.9071619, -23.4198301 ] } },
{ "type": "Feature", "properties": { "osm_id": 1953597522, "tipo": "node", "categoria": "mobilidade", "nome": "Avenida São Domingos, 2244", "amenity": "", "leisure": "", "shop": "", "highway": "bus_stop" }, "geometry": { "type": "Point", "coordinates": [ -51.9057805, -23.4187872 ] } },
{ "type": "Feature", "properties": { "osm_id": 1953602934, "tipo": "node", "categoria": "mobilidade", "nome": "Rua Haiti, 400", "amenity": "", "leisure": "", "shop": "", "highway": "bus_stop" }, "geometry": { "type": "Point", "coordinates": [ -51.9035951, -23.4191873 ] } },
{ "type": "Feature", "properties": { "osm_id": 1953608683, "tipo": "node", "categoria": "mobilidade", "nome": "Rua Haiti, 778", "amenity": "", "leisure": "", "shop": "", "highway": "bus_stop" }, "geometry": { "type": "Point", "coordinates": [ -51.9002607, -23.4181799 ] } },
{ "type": "Feature", "properties": { "osm_id": 1953622951, "tipo": "node", "categoria": "mobilidade", "nome": "Avenida dos Palmares, 226", "amenity": "", "leisure": "", "shop": "", "highway": "bus_stop" }, "geometry": { "type": "Point", "coordinates": [ -51.8955191, -23.4189124 ] } },
{ "type": "Feature", "properties": { "osm_id": 1953625573, "tipo": "node", "categoria": "mobilidade", "nome": "Avenida dos Palamres, 514", "amenity": "", "leisure": "", "shop": "", "highway": "bus_stop" }, "geometry": { "type": "Point", "coordinates": [ -51.8929344, -23.4202322 ] } },
{ "type": "Feature", "properties": { "osm_id": 1953633880, "tipo": "node", "categoria": "mobilidade", "nome": "Avenida Osíres Stenghel Guimarães, 1140", "amenity": "", "leisure": "", "shop": "", "highway": "bus_stop" }, "geometry": { "type": "Point", "coordinates": [ -51.888807, -23.4193577 ] } },
{ "type": "Feature", "properties": { "osm_id": 1953644419, "tipo": "node", "categoria": "mobilidade", "nome": "Avenida Osíres Guimarães", "amenity": "", "leisure": "", "shop": "", "highway": "bus_stop" }, "geometry": { "type": "Point", "coordinates": [ -51.8853894, -23.4184552 ] } },
{ "type": "Feature", "properties": { "osm_id": 1953650998, "tipo": "node", "categoria": "mobilidade", "nome": "Rua Rodolfo Cremm, 1170", "amenity": "", "leisure": "", "shop": "", "highway": "bus_stop" }, "geometry": { "type": "Point", "coordinates": [ -51.8834839, -23.4215911 ] } },
{ "type": "Feature", "properties": { "osm_id": 1953651676, "tipo": "node", "categoria": "mobilidade", "nome": "Rua Rodolfo Cremm, 1540", "amenity": "", "leisure": "", "shop": "", "highway": "bus_stop" }, "geometry": { "type": "Point", "coordinates": [ -51.8824713, -23.418691 ] } },
{ "type": "Feature", "properties": { "osm_id": 1953653087, "tipo": "node", "categoria": "mobilidade", "nome": "Rua Rodolfo Cremm, 1700", "amenity": "", "leisure": "", "shop": "", "highway": "bus_stop" }, "geometry": { "type": "Point", "coordinates": [ -51.8818087, -23.4168173 ] } },
{ "type": "Feature", "properties": { "osm_id": 1953653898, "tipo": "node", "categoria": "mobilidade", "nome": "Rua Lupicínio Rodrigues, 118", "amenity": "", "leisure": "", "shop": "", "highway": "bus_stop" }, "geometry": { "type": "Point", "coordinates": [ -51.8808353, -23.4164427 ] } },
{ "type": "Feature", "properties": { "osm_id": 1953654936, "tipo": "node", "categoria": "mobilidade", "nome": "Rua Compositor Villa Lobos, 102", "amenity": "", "leisure": "", "shop": "", "highway": "bus_stop" }, "geometry": { "type": "Point", "coordinates": [ -51.8796076, -23.4165874 ] } },
{ "type": "Feature", "properties": { "osm_id": 1953666171, "tipo": "node", "categoria": "mobilidade", "nome": "Avenida Sete de Setembro, 1225", "amenity": "", "leisure": "", "shop": "", "highway": "bus_stop" }, "geometry": { "type": "Point", "coordinates": [ -51.8834824, -23.4152283 ] } },
{ "type": "Feature", "properties": { "osm_id": 1953677400, "tipo": "node", "categoria": "mobilidade", "nome": "Avenida Sete de Setembro, 833", "amenity": "", "leisure": "", "shop": "", "highway": "bus_stop" }, "geometry": { "type": "Point", "coordinates": [ -51.8874305, -23.4152038 ] } },
{ "type": "Feature", "properties": { "osm_id": 1953678853, "tipo": "node", "categoria": "mobilidade", "nome": "Avenida Sete de Setembro, 659", "amenity": "", "leisure": "", "shop": "", "highway": "bus_stop" }, "geometry": { "type": "Point", "coordinates": [ -51.8890077, -23.4152071 ] } },
{ "type": "Feature", "properties": { "osm_id": 1953691151, "tipo": "node", "categoria": "mobilidade", "nome": "Rua Professor Bento Fernandes Dias, 323", "amenity": "", "leisure": "", "shop": "", "highway": "bus_stop" }, "geometry": { "type": "Point", "coordinates": [ -51.8903477, -23.4160574 ] } },
{ "type": "Feature", "properties": { "osm_id": 1953692295, "tipo": "node", "categoria": "mobilidade", "nome": "Rua Laudelino Pedro da Silva", "amenity": "", "leisure": "", "shop": "", "highway": "bus_stop" }, "geometry": { "type": "Point", "coordinates": [ -51.8911234, -23.416737 ] } },
{ "type": "Feature", "properties": { "osm_id": 1953693797, "tipo": "node", "categoria": "mobilidade", "nome": "Rua Laudelino Pedro da Silva, 290", "amenity": "", "leisure": "", "shop": "", "highway": "bus_stop" }, "geometry": { "type": "Point", "coordinates": [ -51.8903819, -23.4189507 ] } },
{ "type": "Feature", "properties": { "osm_id": 1953696371, "tipo": "node", "categoria": "mobilidade", "nome": "Rua Doutor Rui Carnassiali, 43", "amenity": "", "leisure": "", "shop": "", "highway": "bus_stop" }, "geometry": { "type": "Point", "coordinates": [ -51.8939509, -23.4193619 ] } },
{ "type": "Feature", "properties": { "osm_id": 1953697390, "tipo": "node", "categoria": "mobilidade", "nome": "Avenida dos Palmares, 287", "amenity": "", "leisure": "", "shop": "", "highway": "bus_stop" }, "geometry": { "type": "Point", "coordinates": [ -51.894935, -23.4191061 ] } },
{ "type": "Feature", "properties": { "osm_id": 1953699487, "tipo": "node", "categoria": "mobilidade", "nome": "Avenida dos Palmares, 99", "amenity": "", "leisure": "", "shop": "", "highway": "bus_stop" }, "geometry": { "type": "Point", "coordinates": [ -51.8965187, -23.4182945 ] } },
{ "type": "Feature", "properties": { "osm_id": 1953701184, "tipo": "node", "categoria": "mobilidade", "nome": "Avenida Guaiapó, 3260", "amenity": "", "leisure": "", "shop": "", "highway": "bus_stop" }, "geometry": { "type": "Point", "coordinates": [ -51.8987785, -23.4194526 ] } },
{ "type": "Feature", "properties": { "osm_id": 1953701863, "tipo": "node", "categoria": "mobilidade", "nome": "Avenida Guaiapó, 3520", "amenity": "", "leisure": "", "shop": "", "highway": "bus_stop" }, "geometry": { "type": "Point", "coordinates": [ -51.9003039, -23.4220134 ] } },
{ "type": "Feature", "properties": { "osm_id": 1953703509, "tipo": "node", "categoria": "mobilidade", "nome": "Avenida Colombo, 2186", "amenity": "", "leisure": "", "shop": "", "highway": "bus_stop" }, "geometry": { "type": "Point", "coordinates": [ -51.904004, -23.4221334 ] } },
{ "type": "Feature", "properties": { "osm_id": 1953703867, "tipo": "node", "categoria": "mobilidade", "nome": "Avenida Colombo, 2314", "amenity": "", "leisure": "", "shop": "", "highway": "bus_stop" }, "geometry": { "type": "Point", "coordinates": [ -51.9059048, -23.4215708 ] } },
{ "type": "Feature", "properties": { "osm_id": 2162884448, "tipo": "node", "categoria": "mobilidade", "nome": "Avenida Colombo, 2315", "amenity": "", "leisure": "", "shop": "", "highway": "bus_stop" }, "geometry": { "type": "Point", "coordinates": [ -51.9059487, -23.4218042 ] } },
{ "type": "Feature", "properties": { "osm_id": 2397813556, "tipo": "node", "categoria": "mobilidade", "nome": "Avenida Harry Prochet", "amenity": "", "leisure": "", "shop": "", "highway": "bus_stop" }, "geometry": { "type": "Point", "coordinates": [ -51.9705145, -23.4217616 ] } },
{ "type": "Feature", "properties": { "osm_id": 3067271032, "tipo": "node", "categoria": "mobilidade", "nome": "Rua Mieko Imai da Silva, 301", "amenity": "", "leisure": "", "shop": "", "highway": "bus_stop" }, "geometry": { "type": "Point", "coordinates": [ -51.9199829, -23.38476 ] } },
{ "type": "Feature", "properties": { "osm_id": 3067272800, "tipo": "node", "categoria": "mobilidade", "nome": "Rua Mieko Imai da Silva, 103", "amenity": "", "leisure": "", "shop": "", "highway": "bus_stop" }, "geometry": { "type": "Point", "coordinates": [ -51.9191193, -23.3864659 ] } },
{ "type": "Feature", "properties": { "osm_id": 3067290986, "tipo": "node", "categoria": "mobilidade", "nome": "Rua Mieko Imai da Silva, 515", "amenity": "", "leisure": "", "shop": "", "highway": "bus_stop" }, "geometry": { "type": "Point", "coordinates": [ -51.9206993, -23.3833012 ] } },
{ "type": "Feature", "properties": { "osm_id": 3067295740, "tipo": "node", "categoria": "mobilidade", "nome": "Rua João Fregadolli, 930", "amenity": "", "leisure": "", "shop": "", "highway": "bus_stop" }, "geometry": { "type": "Point", "coordinates": [ -51.9222008, -23.3787577 ] } },
{ "type": "Feature", "properties": { "osm_id": 3067354748, "tipo": "node", "categoria": "mobilidade", "nome": "Avenida Morangueira, 3549", "amenity": "", "leisure": "", "shop": "", "highway": "bus_stop" }, "geometry": { "type": "Point", "coordinates": [ -51.9164447, -23.3844865 ] } },
{ "type": "Feature", "properties": { "osm_id": 3067356541, "tipo": "node", "categoria": "mobilidade", "nome": "Avenida Américo Belay, 3050", "amenity": "", "leisure": "", "shop": "", "highway": "bus_stop" }, "geometry": { "type": "Point", "coordinates": [ -51.9197614, -23.3787587 ] } },
{ "type": "Feature", "properties": { "osm_id": 3067357924, "tipo": "node", "categoria": "mobilidade", "nome": "Rua João Fregadolli, 350", "amenity": "", "leisure": "", "shop": "", "highway": "bus_stop" }, "geometry": { "type": "Point", "coordinates": [ -51.9188522, -23.3826612 ] } },
{ "type": "Feature", "properties": { "osm_id": 3067359375, "tipo": "node", "categoria": "mobilidade", "nome": "Rua João Fregadolli, 181", "amenity": "", "leisure": "", "shop": "", "highway": "bus_stop" }, "geometry": { "type": "Point", "coordinates": [ -51.9179087, -23.3840218 ] } },
{ "type": "Feature", "properties": { "osm_id": 3067365795, "tipo": "node", "categoria": "mobilidade", "nome": "Avenida Morangueira, 3001", "amenity": "", "leisure": "", "shop": "", "highway": "bus_stop" }, "geometry": { "type": "Point", "coordinates": [ -51.9201569, -23.3891769 ] } },
{ "type": "Feature", "properties": { "osm_id": 3067686619, "tipo": "node", "categoria": "mobilidade", "nome": "Avenida Morangueira, LDO 2092", "amenity": "", "leisure": "", "shop": "", "highway": "bus_stop" }, "geometry": { "type": "Point", "coordinates": [ -51.9245944, -23.3949331 ] } },
{ "type": "Feature", "properties": { "osm_id": 3067699749, "tipo": "node", "categoria": "mobilidade", "nome": "Avenida Franklin Delano Roosevelt, 203", "amenity": "", "leisure": "", "shop": "", "highway": "bus_stop" }, "geometry": { "type": "Point", "coordinates": [ -51.9174521, -23.3895555 ] } },
{ "type": "Feature", "properties": { "osm_id": 3067700128, "tipo": "node", "categoria": "mobilidade", "nome": "Avenida Pedro Taques, 3577", "amenity": "", "leisure": "", "shop": "", "highway": "bus_stop" }, "geometry": { "type": "Point", "coordinates": [ -51.9163529, -23.3907855 ] } },
{ "type": "Feature", "properties": { "osm_id": 3067701556, "tipo": "node", "categoria": "mobilidade", "nome": "Rua Mieko Imai da Silva, 693", "amenity": "", "leisure": "", "shop": "", "highway": "bus_stop" }, "geometry": { "type": "Point", "coordinates": [ -51.9216381, -23.3814727 ] } },
{ "type": "Feature", "properties": { "osm_id": 3067703742, "tipo": "node", "categoria": "mobilidade", "nome": "Rua Pioneiro Antônio Bernardes, 900", "amenity": "", "leisure": "", "shop": "", "highway": "bus_stop" }, "geometry": { "type": "Point", "coordinates": [ -51.9213015, -23.3773804 ] } },
{ "type": "Feature", "properties": { "osm_id": 3067705355, "tipo": "node", "categoria": "mobilidade", "nome": "Avenida Morangueira, 3320", "amenity": "", "leisure": "", "shop": "", "highway": "bus_stop" }, "geometry": { "type": "Point", "coordinates": [ -51.9180174, -23.3867462 ] } },
{ "type": "Feature", "properties": { "osm_id": 3067705740, "tipo": "node", "categoria": "mobilidade", "nome": "Praça Vila Rica", "amenity": "", "leisure": "", "shop": "", "highway": "bus_stop" }, "geometry": { "type": "Point", "coordinates": [ -51.9237325, -23.3940856 ] } },
{ "type": "Feature", "properties": { "osm_id": 3067705845, "tipo": "node", "categoria": "mobilidade", "nome": "Avenida Morangueira, 2092", "amenity": "", "leisure": "", "shop": "", "highway": "bus_stop" }, "geometry": { "type": "Point", "coordinates": [ -51.924749, -23.3954571 ] } },
{ "type": "Feature", "properties": { "osm_id": 3067723024, "tipo": "node", "categoria": "mobilidade", "nome": "Avenida Colombo, L.O 5540 - Colégio Gastão Vidigal", "amenity": "", "leisure": "", "shop": "", "highway": "bus_stop" }, "geometry": { "type": "Point", "coordinates": [ -51.9357862, -23.4114916 ] } },
{ "type": "Feature", "properties": { "osm_id": 3098113936, "tipo": "node", "categoria": "mobilidade", "nome": "Praça Vila Rica", "amenity": "", "leisure": "", "shop": "", "highway": "bus_stop" }, "geometry": { "type": "Point", "coordinates": [ -51.9238748, -23.3939682 ] } },
{ "type": "Feature", "properties": { "osm_id": 3165926576, "tipo": "node", "categoria": "mobilidade", "nome": "Rua Pioneiro Antônio Bernardes, 1150", "amenity": "", "leisure": "", "shop": "", "highway": "bus_stop" }, "geometry": { "type": "Point", "coordinates": [ -51.9226176, -23.3755906 ] } },
{ "type": "Feature", "properties": { "osm_id": 3187731396, "tipo": "node", "categoria": "mobilidade", "nome": "Avenida Colombo, 5905 - Ginásio Chico Neto", "amenity": "", "leisure": "", "shop": "", "highway": "bus_stop" }, "geometry": { "type": "Point", "coordinates": [ -51.9389993, -23.4110247 ] } },
{ "type": "Feature", "properties": { "osm_id": 3187731397, "tipo": "node", "categoria": "mobilidade", "nome": "Avenida Colombo - UEM", "amenity": "", "leisure": "", "shop": "", "highway": "bus_stop" }, "geometry": { "type": "Point", "coordinates": [ -51.9385682, -23.4107673 ] } },
{ "type": "Feature", "properties": { "osm_id": 3187819616, "tipo": "node", "categoria": "mobilidade", "nome": "Rua Pioneiro Antônio Bernardes, 1536", "amenity": "", "leisure": "", "shop": "", "highway": "bus_stop" }, "geometry": { "type": "Point", "coordinates": [ -51.9250175, -23.3728297 ] } },
{ "type": "Feature", "properties": { "osm_id": 3187819617, "tipo": "node", "categoria": "mobilidade", "nome": "Rua Pioneiro Antônio Bernardes, 1380", "amenity": "", "leisure": "", "shop": "", "highway": "bus_stop" }, "geometry": { "type": "Point", "coordinates": [ -51.9240975, -23.3738829 ] } },
{ "type": "Feature", "properties": { "osm_id": 3187821663, "tipo": "node", "categoria": "mobilidade", "nome": "Rua Yoshiaki Kawamoto, 271", "amenity": "", "leisure": "", "shop": "", "highway": "bus_stop" }, "geometry": { "type": "Point", "coordinates": [ -51.926109, -23.3732168 ] } },
{ "type": "Feature", "properties": { "osm_id": 3190391979, "tipo": "node", "categoria": "mobilidade", "nome": "Avenida Pedro Taques, 2600", "amenity": "", "leisure": "", "shop": "", "highway": "bus_stop" }, "geometry": { "type": "Point", "coordinates": [ -51.9195738, -23.399261 ] } },
{ "type": "Feature", "properties": { "osm_id": 3190391980, "tipo": "node", "categoria": "mobilidade", "nome": "Avenida Pedro Taques, 2537", "amenity": "", "leisure": "", "shop": "", "highway": "bus_stop" }, "geometry": { "type": "Point", "coordinates": [ -51.9199491, -23.3997124 ] } },
{ "type": "Feature", "properties": { "osm_id": 3190396015, "tipo": "node", "categoria": "mobilidade", "nome": "Avenida Pedro Taques, 2228", "amenity": "", "leisure": "", "shop": "", "highway": "bus_stop" }, "geometry": { "type": "Point", "coordinates": [ -51.9207603, -23.4023327 ] } },
{ "type": "Feature", "properties": { "osm_id": 3190396016, "tipo": "node", "categoria": "mobilidade", "nome": "Avenida Pedro Taques, 2225", "amenity": "", "leisure": "", "shop": "", "highway": "bus_stop" }, "geometry": { "type": "Point", "coordinates": [ -51.921028, -23.4023244 ] } },
{ "type": "Feature", "properties": { "osm_id": 3190396017, "tipo": "node", "categoria": "mobilidade", "nome": "Avenida Pedro Taques, 2011", "amenity": "", "leisure": "", "shop": "", "highway": "bus_stop" }, "geometry": { "type": "Point", "coordinates": [ -51.9217598, -23.4041402 ] } },
{ "type": "Feature", "properties": { "osm_id": 3190396018, "tipo": "node", "categoria": "mobilidade", "nome": "Avenida Pedro Taques, 1926", "amenity": "", "leisure": "", "shop": "", "highway": "bus_stop" }, "geometry": { "type": "Point", "coordinates": [ -51.9218069, -23.4049488 ] } },
{ "type": "Feature", "properties": { "osm_id": 4290941345, "tipo": "node", "categoria": "mobilidade", "nome": "Rua Castro Alves, 1319", "amenity": "", "leisure": "", "shop": "", "highway": "bus_stop" }, "geometry": { "type": "Point", "coordinates": [ -51.9715531, -23.4282885 ] } },
{ "type": "Feature", "properties": { "osm_id": 4290941346, "tipo": "node", "categoria": "mobilidade", "nome": "Rua Castro Alves, 1300", "amenity": "", "leisure": "", "shop": "", "highway": "bus_stop" }, "geometry": { "type": "Point", "coordinates": [ -51.9714487, -23.4281232 ] } },
{ "type": "Feature", "properties": { "osm_id": 4290941347, "tipo": "node", "categoria": "mobilidade", "nome": "Sem nome", "amenity": "", "leisure": "", "shop": "", "highway": "bus_stop" }, "geometry": { "type": "Point", "coordinates": [ -51.9724876, -23.430121 ] } },
{ "type": "Feature", "properties": { "osm_id": 4290941348, "tipo": "node", "categoria": "mobilidade", "nome": "Avenida Brasil, 7300", "amenity": "", "leisure": "", "shop": "", "highway": "bus_stop" }, "geometry": { "type": "Point", "coordinates": [ -51.9717073, -23.429741 ] } },
{ "type": "Feature", "properties": { "osm_id": 4484808797, "tipo": "node", "categoria": "mobilidade", "nome": "Rua Nossa Senhora do Rocio", "amenity": "", "leisure": "", "shop": "", "highway": "bus_stop" }, "geometry": { "type": "Point", "coordinates": [ -52.0565855, -23.3782916 ] } },
{ "type": "Feature", "properties": { "osm_id": 4571579452, "tipo": "node", "categoria": "mobilidade", "nome": "Avenida Pintassilgo, 1769", "amenity": "", "leisure": "", "shop": "", "highway": "bus_stop" }, "geometry": { "type": "Point", "coordinates": [ -51.9707923, -23.3885866 ] } },
{ "type": "Feature", "properties": { "osm_id": 4571583020, "tipo": "node", "categoria": "mobilidade", "nome": "Avenida Pintassilgo", "amenity": "", "leisure": "", "shop": "", "highway": "bus_stop" }, "geometry": { "type": "Point", "coordinates": [ -51.9717599, -23.3868737 ] } },
{ "type": "Feature", "properties": { "osm_id": 4571583021, "tipo": "node", "categoria": "mobilidade", "nome": "Rua Jorge Benedito Seraval, 3100", "amenity": "", "leisure": "", "shop": "", "highway": "bus_stop" }, "geometry": { "type": "Point", "coordinates": [ -51.9719788, -23.3854425 ] } },
{ "type": "Feature", "properties": { "osm_id": 4611852815, "tipo": "node", "categoria": "mobilidade", "nome": "Avenida Guaiapó, 1440", "amenity": "", "leisure": "", "shop": "", "highway": "bus_stop" }, "geometry": { "type": "Point", "coordinates": [ -51.887371, -23.4074066 ] } },
{ "type": "Feature", "properties": { "osm_id": 4611861798, "tipo": "node", "categoria": "mobilidade", "nome": "Avenida Guaiapó, 1654", "amenity": "", "leisure": "", "shop": "", "highway": "bus_stop" }, "geometry": { "type": "Point", "coordinates": [ -51.8891756, -23.4084694 ] } },
{ "type": "Feature", "properties": { "osm_id": 4611861799, "tipo": "node", "categoria": "mobilidade", "nome": "Avenida Dona Sophia Rasgulaeff, 3505", "amenity": "", "leisure": "", "shop": "", "highway": "bus_stop" }, "geometry": { "type": "Point", "coordinates": [ -51.8923375, -23.4076272 ] } },
{ "type": "Feature", "properties": { "osm_id": 4611861800, "tipo": "node", "categoria": "mobilidade", "nome": "Avenida Dona Sophia Rasgulaeff, 3237", "amenity": "", "leisure": "", "shop": "", "highway": "bus_stop" }, "geometry": { "type": "Point", "coordinates": [ -51.8936954, -23.4068567 ] } },
{ "type": "Feature", "properties": { "osm_id": 4611861801, "tipo": "node", "categoria": "mobilidade", "nome": "Avenida Dona Sophia Rasgulaeff, 2841", "amenity": "", "leisure": "", "shop": "", "highway": "bus_stop" }, "geometry": { "type": "Point", "coordinates": [ -51.896892, -23.4050241 ] } },
{ "type": "Feature", "properties": { "osm_id": 4611861802, "tipo": "node", "categoria": "mobilidade", "nome": "Avenida Dona Sophia Rasgulaeff, 2677", "amenity": "", "leisure": "", "shop": "", "highway": "bus_stop" }, "geometry": { "type": "Point", "coordinates": [ -51.8986012, -23.4040495 ] } },